% program   : RTKPOST ver.2.4.3
% inp file  : C:\Robert\Otago\Ryan Carter\Three day data\base.19o
% inp file  : C:\Robert\Otago\Ryan Carter\Three day data\rover.19o
% inp file  : C:\Robert\Otago\Ryan Carter\Three day data\brdm1440.19p
% obs start : 2019/05/25 06:00:00.0 GPST (week2054 540000.0s)
% obs end   : 2019/05/25 07:59:59.0 GPST (week2054 547199.0s)
% pos mode  : kinematic
% freqs     : L1
% solution  : forward
% elev mask : 10.0 deg
% dynamics  : off
% tidecorr  : off
% ionos opt : off
% tropo opt : saastamoinen
% ephemeris : broadcast
% navi sys  : gps galileo qzss
% amb res   : instantaneous
% val thres : 1.0
% antenna1  :                       ( 0.0000  0.0000  0.0000)
% antenna2  :                       ( 0.0000  0.0000  0.0000)
% ref pos   :-45.869627851  170.510932781    17.7425
%
% (e/n/u-baseline=WGS84,Q=1:fix,2:float,3:sbas,4:dgps,5:single,6:ppp,ns=# of satellites)
%  GPST                  e-baseline(m)  n-baseline(m)  u-baseline(m)   Q  ns   sde(m)   sdn(m)   sdu(m)  sden(m)  sdnu(m)  sdue(m) age(s)  ratio
2019/05/25 06:00:00.000        -1.0855        -2.7898        -0.0009   1  20   0.0046   0.0041   0.0108  -0.0016   0.0032  -0.0040   0.00   36.6
2019/05/25 06:00:01.000        -1.0868        -2.7905        -0.0012   1  20   0.0046   0.0041   0.0108  -0.0016   0.0032  -0.0040   0.00   27.2
2019/05/25 06:00:02.000        -1.0853        -2.7889        -0.0025   1  20   0.0046   0.0041   0.0108  -0.0016   0.0032  -0.0040   0.00   43.5
2019/05/25 06:00:03.000        -1.0868        -2.7901        -0.0034   1  20   0.0046   0.0041   0.0108  -0.0016   0.0032  -0.0040   0.00   29.8
2019/05/25 06:00:04.000        -1.0859        -2.7901        -0.0046   1  20   0.0046   0.0041   0.0108  -0.0016   0.0032  -0.0040   0.00   30.2
2019/05/25 06:00:05.000        -1.0858        -2.7908        -0.0028   1  20   0.0046   0.0041   0.0108  -0.0016   0.0032  -0.0040   0.00   41.5
2019/05/25 06:00:06.000        -1.0859        -2.7898        -0.0023   1  20   0.0046   0.0041   0.0108  -0.0016   0.0032  -0.0040   0.00   39.6
2019/05/25 06:00:07.000        -1.0860        -2.7914        -0.0058   1  20   0.0046   0.0041   0.0108  -0.0016   0.0032  -0.0040   0.00   43.5
2019/05/25 06:00:08.000        -1.0866        -2.7896        -0.0029   1  20   0.0046   0.0041   0.0108  -0.0016   0.0032  -0.0040   0.00   93.6
2019/05/25 06:00:09.000        -1.0866        -2.7900        -0.0039   1  20   0.0046   0.0041   0.0108  -0.0016   0.0032  -0.0040   0.00   62.1
2019/05/25 06:00:10.000        -1.0873        -2.7898        -0.0011   1  20   0.0046   0.0041   0.0108  -0.0016   0.0032  -0.0040   0.00   86.5
2019/05/25 06:00:11.000        -1.0872        -2.7904        -0.0051   1  20   0.0046   0.0041   0.0108  -0.0016   0.0032  -0.0040   0.00   64.8
2019/05/25 06:00:12.000        -1.0869        -2.7895        -0.0036   1  20   0.0046   0.0041   0.0108  -0.0016   0.0032  -0.0040   0.00   59.7
2019/05/25 06:00:13.000        -1.0865        -2.7896        -0.0036   1  20   0.0046   0.0041   0.0108  -0.0016   0.0032  -0.0040   0.00   65.8
2019/05/25 06:00:14.000        -1.0863        -2.7886        -0.0056   1  20   0.0046   0.0041   0.0108  -0.0016   0.0032  -0.0040   0.00   48.2
2019/05/25 06:00:15.000        -1.0861        -2.7894        -0.0005   1  20   0.0046   0.0041   0.0108  -0.0016   0.0032  -0.0040   0.00   40.6
2019/05/25 06:00:16.000        -1.0876        -2.7894        -0.0033   1  20   0.0046   0.0041   0.0108  -0.0016   0.0032  -0.0040   0.00   57.7
2019/05/25 06:00:17.000        -1.0871        -2.7904        -0.0038   1  20   0.0046   0.0041   0.0108  -0.0016   0.0032  -0.0040   0.00   45.2
2019/05/25 06:00:18.000        -1.0867        -2.7900        -0.0022   1  20   0.0046   0.0041   0.0108  -0.0016   0.0032  -0.0040   0.00   40.8
2019/05/25 06:00:19.000        -1.0867        -2.7894        -0.0011   1  20   0.0046   0.0041   0.0108  -0.0016   0.0032  -0.0040   0.00   66.0
2019/05/25 06:00:20.000        -1.0861        -2.7886        -0.0048   1  20   0.0046   0.0041   0.0108  -0.0016   0.0032  -0.0040   0.00   41.9
2019/05/25 06:00:21.000        -1.0875        -2.7891        -0.0037   1  20   0.0046   0.0041   0.0108  -0.0016   0.0032  -0.0040   0.00   45.4
2019/05/25 06:00:22.000        -1.0872        -2.7897        -0.0032   1  20   0.0046   0.0041   0.0108  -0.0016   0.0032  -0.0040   0.00   44.8
2019/05/25 06:00:23.000        -1.0872        -2.7900        -0.0044   1  20   0.0046   0.0041   0.0108  -0.0016   0.0032  -0.0040   0.00   33.5
2019/05/25 06:00:24.000        -1.0875        -2.7894        -0.0029   1  20   0.0046   0.0041   0.0108  -0.0016   0.0032  -0.0040   0.00   59.9
2019/05/25 06:00:25.000        -1.0871        -2.7885        -0.0009   1  20   0.0046   0.0041   0.0108  -0.0016   0.0032  -0.0040   0.00   77.0
2019/05/25 06:00:26.000        -1.0868        -2.7904        -0.0035   1  20   0.0046   0.0041   0.0108  -0.0016   0.0032  -0.0040   0.00   48.3
2019/05/25 06:00:27.000        -1.0871        -2.7894        -0.0008   1  20   0.0046   0.0041   0.0108  -0.0016   0.0032  -0.0040   0.00   50.0
2019/05/25 06:00:28.000        -1.0872        -2.7893        -0.0028   1  20   0.0046   0.0041   0.0108  -0.0016   0.0032  -0.0040   0.00   81.9
2019/05/25 06:00:29.000        -1.0866        -2.7897        -0.0047   1  20   0.0046   0.0041   0.0108  -0.0016   0.0032  -0.0040   0.00   80.2
2019/05/25 06:00:30.000        -1.0861        -2.7903        -0.0027   1  20   0.0046   0.0041   0.0108  -0.0016   0.0032  -0.0040   0.00   52.8
2019/05/25 06:00:31.000        -1.0869        -2.7894        -0.0023   1  20   0.0046   0.0041   0.0108  -0.0016   0.0032  -0.0040   0.00   62.1
2019/05/25 06:00:32.000        -1.0869        -2.7904        -0.0032   1  20   0.0046   0.0041   0.0108  -0.0016   0.0032  -0.0040   0.00   78.6
2019/05/25 06:00:33.000        -1.0875        -2.7883        -0.0016   1  20   0.0046   0.0041   0.0108  -0.0016   0.0032  -0.0040   0.00   60.9
2019/05/25 06:00:34.000        -1.0874        -2.7894        -0.0018   1  20   0.0046   0.0041   0.0108  -0.0016   0.0032  -0.0040   0.00   59.8
2019/05/25 06:00:35.000        -1.0871        -2.7910        -0.0049   1  20   0.0046   0.0041   0.0108  -0.0016   0.0032  -0.0040   0.00   39.1
2019/05/25 06:00:36.000        -1.0863        -2.7905        -0.0023   1  20   0.0046   0.0041   0.0108  -0.0016   0.0032  -0.0040   0.00   31.9
2019/05/25 06:00:37.000        -1.0870        -2.7897        -0.0024   1  20   0.0046   0.0041   0.0108  -0.0016   0.0032  -0.0040   0.00   40.7
2019/05/25 06:00:38.000        -1.0866        -2.7912        -0.0063   1  20   0.0046   0.0041   0.0108  -0.0016   0.0032  -0.0040   0.00   43.5
2019/05/25 06:00:39.000        -1.0866        -2.7886        -0.0024   1  20   0.0046   0.0041   0.0108  -0.0016   0.0032  -0.0040   0.00   30.9
2019/05/25 06:00:40.000        -1.0862        -2.7913        -0.0037   1  20   0.0046   0.0041   0.0108  -0.0016   0.0032  -0.0040   0.00   37.7
2019/05/25 06:00:41.000        -1.0868        -2.7901        -0.0018   1  20   0.0046   0.0041   0.0108  -0.0016   0.0032  -0.0040   0.00   34.2
2019/05/25 06:00:42.000        -1.0883        -2.7903        -0.0030   1  20   0.0046   0.0041   0.0108  -0.0016   0.0032  -0.0040   0.00   29.1
2019/05/25 06:00:43.000        -1.0876        -2.7901        -0.0036   1  20   0.0046   0.0041   0.0108  -0.0016   0.0032  -0.0040   0.00   21.8
2019/05/25 06:00:44.000        -1.0876        -2.7901        -0.0029   1  20   0.0046   0.0041   0.0108  -0.0016   0.0032  -0.0040   0.00   21.4
2019/05/25 06:00:45.000        -1.0861        -2.7900        -0.0038   1  20   0.0046   0.0041   0.0108  -0.0016   0.0032  -0.0040   0.00   36.0
2019/05/25 06:00:46.000        -1.0873        -2.7908        -0.0031   1  20   0.0046   0.0041   0.0108  -0.0016   0.0032  -0.0040   0.00   42.5
2019/05/25 06:00:47.000        -1.0884        -2.7910        -0.0019   1  20   0.0046   0.0041   0.0108  -0.0016   0.0032  -0.0040   0.00   48.6
2019/05/25 06:00:48.000        -1.0877        -2.7905        -0.0060   1  20   0.0046   0.0041   0.0108  -0.0016   0.0032  -0.0040   0.00   95.2
2019/05/25 06:00:49.000        -1.0883        -2.7892        -0.0028   1  20   0.0046   0.0041   0.0108  -0.0016   0.0032  -0.0040   0.00   44.8
2019/05/25 06:00:50.000        -1.0872        -2.7907        -0.0025   1  20   0.0046   0.0041   0.0108  -0.0016   0.0032  -0.0040   0.00   40.0
2019/05/25 06:00:51.000        -1.0879        -2.7910        -0.0055   1  20   0.0046   0.0041   0.0108  -0.0016   0.0032  -0.0040   0.00   44.6
2019/05/25 06:00:52.000        -1.0886        -2.7911        -0.0048   1  20   0.0046   0.0041   0.0108  -0.0016   0.0032  -0.0040   0.00   42.2
2019/05/25 06:00:53.000        -1.0883        -2.7912        -0.0037   1  20   0.0046   0.0041   0.0108  -0.0016   0.0032  -0.0040   0.00   39.2
2019/05/25 06:00:54.000        -1.0880        -2.7905        -0.0053   1  20   0.0046   0.0041   0.0108  -0.0016   0.0032  -0.0040   0.00   49.8
2019/05/25 06:00:55.000        -1.0878        -2.7916        -0.0050   1  20   0.0046   0.0041   0.0108  -0.0016   0.0032  -0.0040   0.00   53.5
2019/05/25 06:00:56.000        -1.0862        -2.7919        -0.0045   1  20   0.0046   0.0041   0.0108  -0.0016   0.0032  -0.0040   0.00   72.8
2019/05/25 06:00:57.000        -1.0886        -2.7913        -0.0074   1  20   0.0046   0.0041   0.0108  -0.0016   0.0032  -0.0040   0.00  114.8
2019/05/25 06:00:58.000        -1.0870        -2.7912        -0.0022   1  20   0.0046   0.0041   0.0108  -0.0016   0.0032  -0.0040   0.00   67.6
2019/05/25 06:00:59.000        -1.0874        -2.7916        -0.0032   1  20   0.0046   0.0041   0.0108  -0.0016   0.0032  -0.0040   0.00  114.0
2019/05/25 06:01:00.000        -1.0877        -2.7913        -0.0024   1  20   0.0046   0.0041   0.0108  -0.0016   0.0032  -0.0040   0.00  102.5
2019/05/25 06:01:01.000        -1.0878        -2.7920        -0.0052   1  20   0.0046   0.0041   0.0108  -0.0016   0.0032  -0.0040   0.00   47.5
2019/05/25 06:01:02.000        -1.0881        -2.7917        -0.0049   1  20   0.0046   0.0041   0.0108  -0.0016   0.0032  -0.0040   0.00   59.7
2019/05/25 06:01:03.000        -1.0875        -2.7911        -0.0045   1  20   0.0046   0.0041   0.0108  -0.0016   0.0032  -0.0040   0.00   73.9
2019/05/25 06:01:04.000        -1.0878        -2.7911        -0.0053   1  20   0.0046   0.0041   0.0108  -0.0016   0.0032  -0.0040   0.00   63.0
2019/05/25 06:01:05.000        -1.0874        -2.7915        -0.0036   1  20   0.0046   0.0041   0.0108  -0.0016   0.0032  -0.0040   0.00   61.7
2019/05/25 06:01:06.000        -1.0869        -2.7913        -0.0058   1  20   0.0046   0.0041   0.0108  -0.0016   0.0032  -0.0040   0.00   48.4
2019/05/25 06:01:07.000        -1.0878        -2.7912        -0.0054   1  20   0.0046   0.0041   0.0108  -0.0016   0.0032  -0.0040   0.00   43.0
2019/05/25 06:01:08.000        -1.0864        -2.7919        -0.0062   1  20   0.0046   0.0041   0.0108  -0.0016   0.0032  -0.0040   0.00   31.9
2019/05/25 06:01:09.000        -1.0860        -2.7914        -0.0055   1  20   0.0046   0.0041   0.0108  -0.0016   0.0032  -0.0040   0.00   36.3
2019/05/25 06:01:10.000        -1.0878        -2.7920        -0.0067   1  20   0.0046   0.0041   0.0108  -0.0016   0.0032  -0.0040   0.00   32.6
2019/05/25 06:01:11.000        -1.0870        -2.7917        -0.0067   1  20   0.0046   0.0041   0.0108  -0.0016   0.0032  -0.0040   0.00   75.2
2019/05/25 06:01:12.000        -1.0867        -2.7917        -0.0052   1  20   0.0046   0.0041   0.0108  -0.0016   0.0032  -0.0040   0.00   33.3
2019/05/25 06:01:13.000        -1.0862        -2.7919        -0.0050   1  20   0.0046   0.0041   0.0108  -0.0016   0.0032  -0.0040   0.00   40.6
2019/05/25 06:01:14.000        -1.0877        -2.7921        -0.0040   1  20   0.0046   0.0041   0.0108  -0.0016   0.0032  -0.0040   0.00   39.8
2019/05/25 06:01:15.000        -1.0871        -2.7913        -0.0062   1  20   0.0046   0.0041   0.0108  -0.0016   0.0032  -0.0040   0.00   30.9
2019/05/25 06:01:16.000        -1.0871        -2.7921        -0.0025   1  20   0.0046   0.0041   0.0108  -0.0016   0.0032  -0.0040   0.00   34.3
2019/05/25 06:01:17.000        -1.0871        -2.7927        -0.0063   1  20   0.0046   0.0041   0.0108  -0.0016   0.0032  -0.0040   0.00   56.1
2019/05/25 06:01:18.000        -1.0869        -2.7916        -0.0035   1  20   0.0046   0.0041   0.0108  -0.0016   0.0032  -0.0040   0.00   39.5
2019/05/25 06:01:19.000        -1.0860        -2.7913        -0.0052   1  20   0.0046   0.0041   0.0108  -0.0016   0.0032  -0.0040   0.00   42.9
2019/05/25 06:01:20.000        -1.0877        -2.7916        -0.0044   1  20   0.0046   0.0041   0.0108  -0.0016   0.0032  -0.0040   0.00   35.0
2019/05/25 06:01:21.000        -1.0862        -2.7914        -0.0048   1  20   0.0046   0.0041   0.0108  -0.0016   0.0032  -0.0040   0.00   45.9
2019/05/25 06:01:22.000        -1.0880        -2.7917        -0.0044   1  20   0.0046   0.0041   0.0108  -0.0016   0.0032  -0.0040   0.00   62.4
2019/05/25 06:01:23.000        -1.0861        -2.7909        -0.0051   1  20   0.0046   0.0041   0.0108  -0.0016   0.0032  -0.0040   0.00   45.4
2019/05/25 06:01:24.000        -1.0858        -2.7895        -0.0035   1  20   0.0046   0.0041   0.0108  -0.0016   0.0032  -0.0040   0.00   48.4
2019/05/25 06:01:25.000        -1.0861        -2.7906        -0.0047   1  20   0.0046   0.0041   0.0108  -0.0016   0.0032  -0.0040   0.00   33.4
2019/05/25 06:01:26.000        -1.0878        -2.7917        -0.0042   1  20   0.0046   0.0041   0.0108  -0.0016   0.0032  -0.0040   0.00   24.5
2019/05/25 06:01:27.000        -1.0864        -2.7917        -0.0035   1  20   0.0046   0.0041   0.0108  -0.0016   0.0032  -0.0040   0.00   40.9
2019/05/25 06:01:28.000        -1.0874        -2.7918        -0.0055   1  20   0.0046   0.0041   0.0108  -0.0016   0.0032  -0.0040   0.00   39.1
2019/05/25 06:01:29.000        -1.0871        -2.7918        -0.0051   1  20   0.0046   0.0041   0.0108  -0.0016   0.0032  -0.0040   0.00   40.0
2019/05/25 06:01:30.000        -1.0876        -2.7937        -0.0089   1  20   0.0046   0.0041   0.0108  -0.0016   0.0032  -0.0040   0.00   36.1
2019/05/25 06:01:31.000        -1.0858        -2.7923        -0.0037   1  20   0.0046   0.0041   0.0108  -0.0016   0.0032  -0.0040   0.00   20.2
2019/05/25 06:01:32.000        -1.0866        -2.7930        -0.0062   1  20   0.0046   0.0041   0.0108  -0.0016   0.0032  -0.0040   0.00   25.0
2019/05/25 06:01:33.000        -1.0869        -2.7924        -0.0030   1  20   0.0046   0.0041   0.0108  -0.0016   0.0032  -0.0040   0.00   26.8
2019/05/25 06:01:34.000        -1.0864        -2.7920        -0.0035   1  20   0.0046   0.0041   0.0108  -0.0016   0.0032  -0.0040   0.00   60.2
2019/05/25 06:01:35.000        -1.0873        -2.7923        -0.0016   1  20   0.0046   0.0041   0.0108  -0.0016   0.0032  -0.0040   0.00   83.5
2019/05/25 06:01:36.000        -1.0857        -2.7923        -0.0008   1  20   0.0046   0.0041   0.0108  -0.0016   0.0032  -0.0040   0.00   86.6
2019/05/25 06:01:37.000        -1.0882        -2.7923        -0.0028   1  20   0.0046   0.0041   0.0108  -0.0016   0.0032  -0.0040   0.00   50.5
2019/05/25 06:01:38.000        -1.0860        -2.7924        -0.0014   1  20   0.0046   0.0041   0.0108  -0.0016   0.0032  -0.0040   0.00   57.7
2019/05/25 06:01:39.000        -1.0860        -2.7918        -0.0041   1  20   0.0046   0.0041   0.0108  -0.0016   0.0032  -0.0040   0.00   79.5
2019/05/25 06:01:40.000        -1.0864        -2.7923        -0.0037   1  20   0.0046   0.0041   0.0108  -0.0016   0.0032  -0.0040   0.00   97.4
2019/05/25 06:01:41.000        -1.0859        -2.7923        -0.0048   1  20   0.0046   0.0041   0.0108  -0.0016   0.0032  -0.0040   0.00   57.7
2019/05/25 06:01:42.000        -1.0856        -2.7926        -0.0067   1  20   0.0046   0.0041   0.0108  -0.0016   0.0032  -0.0040   0.00  118.9
2019/05/25 06:01:43.000        -1.0861        -2.7933        -0.0040   1  20   0.0046   0.0041   0.0108  -0.0016   0.0032  -0.0040   0.00   84.0
2019/05/25 06:01:44.000        -1.0859        -2.7925        -0.0042   1  20   0.0046   0.0041   0.0108  -0.0016   0.0032  -0.0040   0.00   37.5
2019/05/25 06:01:45.000        -1.0873        -2.7922        -0.0045   1  20   0.0046   0.0041   0.0108  -0.0016   0.0032  -0.0040   0.00   53.5
2019/05/25 06:01:46.000        -1.0859        -2.7918        -0.0046   1  20   0.0046   0.0041   0.0108  -0.0016   0.0032  -0.0040   0.00   37.4
2019/05/25 06:01:47.000        -1.0858        -2.7924        -0.0075   1  20   0.0046   0.0041   0.0108  -0.0016   0.0032  -0.0040   0.00   66.5
2019/05/25 06:01:48.000        -1.0855        -2.7918        -0.0058   1  20   0.0046   0.0041   0.0108  -0.0016   0.0032  -0.0040   0.00   99.8
2019/05/25 06:01:49.000        -1.0870        -2.7915        -0.0026   1  20   0.0046   0.0041   0.0108  -0.0016   0.0032  -0.0040   0.00   89.4
2019/05/25 06:01:50.000        -1.0865        -2.7929        -0.0052   1  20   0.0046   0.0041   0.0108  -0.0016   0.0032  -0.0040   0.00   92.3
2019/05/25 06:01:51.000        -1.0860        -2.7920        -0.0054   1  20   0.0046   0.0041   0.0108  -0.0016   0.0032  -0.0040   0.00  121.8
2019/05/25 06:01:52.000        -1.0868        -2.7917        -0.0054   1  20   0.0046   0.0041   0.0108  -0.0016   0.0032  -0.0040   0.00   71.2
2019/05/25 06:01:53.000        -1.0847        -2.7923        -0.0066   1  20   0.0046   0.0041   0.0108  -0.0016   0.0032  -0.0040   0.00   60.4
2019/05/25 06:01:54.000        -1.0849        -2.7929        -0.0092   1  20   0.0046   0.0041   0.0108  -0.0016   0.0032  -0.0040   0.00   52.0
2019/05/25 06:01:55.000        -1.0858        -2.7909        -0.0015   1  20   0.0046   0.0041   0.0108  -0.0016   0.0032  -0.0040   0.00   81.6
2019/05/25 06:01:56.000        -1.0869        -2.7919        -0.0083   1  20   0.0046   0.0041   0.0108  -0.0016   0.0032  -0.0040   0.00   59.4
2019/05/25 06:01:57.000        -1.0882        -2.7925        -0.0056   1  20   0.0046   0.0041   0.0108  -0.0016   0.0032  -0.0040   0.00   51.3
2019/05/25 06:01:58.000        -1.0861        -2.7919        -0.0040   1  20   0.0046   0.0041   0.0108  -0.0016   0.0032  -0.0040   0.00   46.7
2019/05/25 06:01:59.000        -1.0854        -2.7911        -0.0041   1  20   0.0046   0.0041   0.0108  -0.0016   0.0032  -0.0040   0.00   57.6
2019/05/25 06:02:00.000        -1.0859        -2.7918        -0.0051   1  20   0.0046   0.0041   0.0108  -0.0016   0.0032  -0.0040   0.00   57.2
2019/05/25 06:02:01.000        -1.0864        -2.7918        -0.0078   1  20   0.0046   0.0041   0.0108  -0.0016   0.0032  -0.0040   0.00   68.7
2019/05/25 06:02:02.000        -1.0863        -2.7912        -0.0060   1  20   0.0046   0.0041   0.0108  -0.0016   0.0032  -0.0040   0.00   65.2
2019/05/25 06:02:03.000        -1.0860        -2.7905        -0.0052   1  20   0.0046   0.0041   0.0108  -0.0016   0.0032  -0.0040   0.00   42.8
2019/05/25 06:02:04.000        -1.0872        -2.7908        -0.0045   1  20   0.0046   0.0041   0.0108  -0.0016   0.0032  -0.0040   0.00   81.3
2019/05/25 06:02:05.000        -1.0875        -2.7917        -0.0038   1  20   0.0046   0.0041   0.0108  -0.0016   0.0032  -0.0040   0.00   35.6
2019/05/25 06:02:06.000        -1.0862        -2.7922        -0.0047   1  20   0.0046   0.0041   0.0108  -0.0016   0.0032  -0.0040   0.00   33.3
2019/05/25 06:02:07.000        -1.0870        -2.7916        -0.0038   1  20   0.0046   0.0041   0.0108  -0.0016   0.0032  -0.0040   0.00   76.1
2019/05/25 06:02:08.000        -1.0871        -2.7914         0.0019   1  20   0.0046   0.0041   0.0108  -0.0016   0.0032  -0.0040   0.00   94.9
2019/05/25 06:02:09.000        -1.0866        -2.7917        -0.0034   1  20   0.0046   0.0041   0.0108  -0.0016   0.0032  -0.0040   0.00   32.0
2019/05/25 06:02:10.000        -1.0868        -2.7919        -0.0053   1  20   0.0046   0.0041   0.0108  -0.0016   0.0032  -0.0040   0.00   33.7
2019/05/25 06:02:11.000        -1.0869        -2.7921        -0.0043   1  20   0.0046   0.0041   0.0108  -0.0016   0.0032  -0.0040   0.00   25.2
2019/05/25 06:02:12.000        -1.0862        -2.7913        -0.0049   1  20   0.0046   0.0041   0.0108  -0.0016   0.0032  -0.0040   0.00   28.9
2019/05/25 06:02:13.000        -1.0842        -2.7922        -0.0059   1  20   0.0046   0.0041   0.0108  -0.0016   0.0032  -0.0040   0.00   23.3
2019/05/25 06:02:14.000        -1.0863        -2.7919        -0.0058   1  20   0.0046   0.0041   0.0108  -0.0016   0.0032  -0.0040   0.00   27.6
2019/05/25 06:02:15.000        -1.0872        -2.7929        -0.0057   1  20   0.0046   0.0041   0.0108  -0.0016   0.0032  -0.0040   0.00   32.9
2019/05/25 06:02:16.000        -1.0867        -2.7916        -0.0021   1  20   0.0046   0.0041   0.0108  -0.0016   0.0032  -0.0040   0.00  124.2
2019/05/25 06:02:17.000        -1.0859        -2.7921        -0.0019   1  20   0.0046   0.0041   0.0108  -0.0016   0.0032  -0.0040   0.00   38.5
2019/05/25 06:02:18.000        -1.0861        -2.7906        -0.0058   1  20   0.0046   0.0041   0.0108  -0.0016   0.0032  -0.0040   0.00   47.1
2019/05/25 06:02:19.000        -1.0863        -2.7906        -0.0044   1  20   0.0046   0.0041   0.0108  -0.0016   0.0032  -0.0040   0.00   62.5
2019/05/25 06:02:20.000        -1.0876        -2.7913        -0.0030   1  20   0.0046   0.0041   0.0108  -0.0016   0.0032  -0.0040   0.00   73.4
2019/05/25 06:02:21.000        -1.0866        -2.7919        -0.0067   1  20   0.0046   0.0041   0.0108  -0.0016   0.0032  -0.0040   0.00   74.9
2019/05/25 06:02:22.000        -1.0874        -2.7920        -0.0024   1  20   0.0046   0.0041   0.0108  -0.0016   0.0032  -0.0040   0.00   47.4
2019/05/25 06:02:23.000        -1.0873        -2.7906        -0.0018   1  20   0.0046   0.0041   0.0108  -0.0016   0.0032  -0.0040   0.00   31.7
2019/05/25 06:02:24.000        -1.0865        -2.7931        -0.0069   1  20   0.0046   0.0041   0.0108  -0.0016   0.0032  -0.0040   0.00   30.5
2019/05/25 06:02:25.000        -1.0859        -2.7914        -0.0052   1  20   0.0046   0.0041   0.0108  -0.0016   0.0032  -0.0040   0.00   25.3
2019/05/25 06:02:26.000        -1.0858        -2.7929        -0.0088   1  20   0.0046   0.0041   0.0108  -0.0016   0.0032  -0.0040   0.00   23.6
2019/05/25 06:02:27.000        -1.0855        -2.7921        -0.0090   1  20   0.0046   0.0041   0.0108  -0.0016   0.0032  -0.0040   0.00   27.1
2019/05/25 06:02:28.000        -1.0878        -2.7924        -0.0072   1  20   0.0046   0.0041   0.0108  -0.0016   0.0032  -0.0040   0.00   22.5
2019/05/25 06:02:29.000        -1.0869        -2.7926        -0.0052   1  20   0.0046   0.0041   0.0108  -0.0016   0.0032  -0.0040   0.00   31.7
2019/05/25 06:02:30.000        -1.0866        -2.7920        -0.0068   1  20   0.0046   0.0041   0.0108  -0.0016   0.0032  -0.0040   0.00   29.0
2019/05/25 06:02:31.000        -1.0873        -2.7920        -0.0071   1  20   0.0046   0.0041   0.0108  -0.0016   0.0032  -0.0040   0.00   17.4
2019/05/25 06:02:32.000        -1.0863        -2.7920        -0.0061   1  20   0.0046   0.0041   0.0108  -0.0016   0.0032  -0.0040   0.00   18.4
2019/05/25 06:02:33.000        -1.0882        -2.7916        -0.0059   1  20   0.0046   0.0041   0.0108  -0.0016   0.0032  -0.0040   0.00   23.1
2019/05/25 06:02:34.000        -1.0863        -2.7928        -0.0085   1  20   0.0046   0.0041   0.0108  -0.0016   0.0032  -0.0040   0.00   25.3
2019/05/25 06:02:35.000        -1.0864        -2.7917        -0.0097   1  20   0.0046   0.0041   0.0108  -0.0016   0.0032  -0.0040   0.00   23.3
2019/05/25 06:02:36.000        -1.0870        -2.7917        -0.0075   1  20   0.0046   0.0041   0.0108  -0.0016   0.0032  -0.0040   0.00   19.2
2019/05/25 06:02:37.000        -1.0874        -2.7917        -0.0088   1  20   0.0046   0.0041   0.0108  -0.0016   0.0032  -0.0040   0.00   16.5
2019/05/25 06:02:38.000        -1.0857        -2.7928        -0.0099   1  20   0.0046   0.0041   0.0108  -0.0016   0.0032  -0.0040   0.00   28.1
2019/05/25 06:02:39.000        -1.0861        -2.7938        -0.0082   1  20   0.0046   0.0041   0.0108  -0.0016   0.0032  -0.0040   0.00   27.9
2019/05/25 06:02:40.000        -1.0868        -2.7913        -0.0064   1  20   0.0046   0.0041   0.0108  -0.0016   0.0032  -0.0040   0.00   24.8
2019/05/25 06:02:41.000        -1.0875        -2.7932        -0.0069   1  20   0.0046   0.0041   0.0108  -0.0016   0.0032  -0.0040   0.00   21.1
2019/05/25 06:02:42.000        -1.0871        -2.7920        -0.0028   1  20   0.0046   0.0041   0.0108  -0.0016   0.0032  -0.0040   0.00   24.3
2019/05/25 06:02:43.000        -1.0880        -2.7915        -0.0069   1  20   0.0046   0.0041   0.0108  -0.0016   0.0032  -0.0040   0.00   28.6
2019/05/25 06:02:44.000        -1.0871        -2.7914        -0.0033   1  20   0.0046   0.0041   0.0108  -0.0016   0.0032  -0.0040   0.00   26.6
2019/05/25 06:02:45.000        -1.0872        -2.7913        -0.0040   1  20   0.0046   0.0041   0.0108  -0.0016   0.0032  -0.0040   0.00   32.0
2019/05/25 06:02:46.000        -1.0869        -2.7918        -0.0012   1  20   0.0046   0.0041   0.0108  -0.0016   0.0032  -0.0040   0.00   29.8
2019/05/25 06:02:47.000        -1.0879        -2.7914        -0.0030   1  20   0.0046   0.0041   0.0108  -0.0016   0.0032  -0.0040   0.00   24.5
2019/05/25 06:02:48.000        -1.0875        -2.7917        -0.0035   1  20   0.0046   0.0041   0.0108  -0.0016   0.0032  -0.0040   0.00   37.3
2019/05/25 06:02:49.000        -1.0880        -2.7924        -0.0048   1  20   0.0046   0.0041   0.0108  -0.0016   0.0032  -0.0040   0.00   41.5
2019/05/25 06:02:50.000        -1.0871        -2.7912        -0.0044   1  20   0.0046   0.0041   0.0108  -0.0016   0.0032  -0.0040   0.00   35.2
2019/05/25 06:02:51.000        -1.0876        -2.7921        -0.0050   1  20   0.0046   0.0041   0.0108  -0.0016   0.0032  -0.0040   0.00   29.5
2019/05/25 06:02:52.000        -1.0870        -2.7912        -0.0046   1  20   0.0046   0.0041   0.0108  -0.0016   0.0032  -0.0040   0.00   23.8
2019/05/25 06:02:53.000        -1.0868        -2.7921        -0.0061   1  20   0.0046   0.0041   0.0108  -0.0016   0.0032  -0.0040   0.00   26.1
2019/05/25 06:02:54.000        -1.0877        -2.7917        -0.0056   1  20   0.0046   0.0041   0.0108  -0.0016   0.0032  -0.0040   0.00   31.7
2019/05/25 06:02:55.000        -1.0877        -2.7907        -0.0047   1  20   0.0046   0.0041   0.0108  -0.0016   0.0032  -0.0040   0.00   46.7
2019/05/25 06:02:56.000        -1.0874        -2.7921        -0.0076   1  20   0.0046   0.0041   0.0108  -0.0016   0.0032  -0.0040   0.00   36.9
2019/05/25 06:02:57.000        -1.0875        -2.7916        -0.0041   1  20   0.0046   0.0041   0.0108  -0.0016   0.0032  -0.0040   0.00   28.0
2019/05/25 06:02:58.000        -1.0879        -2.7916        -0.0029   1  20   0.0046   0.0041   0.0108  -0.0016   0.0032  -0.0040   0.00   22.9
2019/05/25 06:02:59.000        -1.0892        -2.7914        -0.0038   1  20   0.0046   0.0041   0.0108  -0.0016   0.0032  -0.0040   0.00   53.5
2019/05/25 06:03:00.000        -1.0876        -2.7909        -0.0025   1  20   0.0046   0.0041   0.0108  -0.0016   0.0032  -0.0040   0.00   40.6
2019/05/25 06:03:01.000        -1.0879        -2.7934        -0.0067   1  20   0.0046   0.0041   0.0108  -0.0016   0.0032  -0.0040   0.00   77.7
2019/05/25 06:03:02.000        -1.0881        -2.7921        -0.0046   1  20   0.0046   0.0041   0.0108  -0.0016   0.0032  -0.0040   0.00   46.2
2019/05/25 06:03:03.000        -1.0882        -2.7934        -0.0039   1  20   0.0046   0.0041   0.0108  -0.0016   0.0032  -0.0040   0.00   30.3
2019/05/25 06:03:04.000        -1.0871        -2.7925        -0.0072   1  20   0.0046   0.0041   0.0108  -0.0016   0.0032  -0.0040   0.00   38.2
2019/05/25 06:03:05.000        -1.0874        -2.7934        -0.0064   1  20   0.0046   0.0041   0.0108  -0.0016   0.0032  -0.0040   0.00   41.3
2019/05/25 06:03:06.000        -1.0881        -2.7924        -0.0024   1  20   0.0046   0.0041   0.0108  -0.0016   0.0032  -0.0040   0.00   53.1
2019/05/25 06:03:07.000        -1.0885        -2.7933        -0.0035   1  20   0.0046   0.0041   0.0108  -0.0016   0.0032  -0.0040   0.00   43.2
2019/05/25 06:03:08.000        -1.0879        -2.7914        -0.0053   1  20   0.0046   0.0041   0.0108  -0.0016   0.0032  -0.0040   0.00   73.0
2019/05/25 06:03:09.000        -1.0873        -2.7923        -0.0051   1  20   0.0046   0.0041   0.0108  -0.0016   0.0032  -0.0040   0.00   66.7
2019/05/25 06:03:10.000        -1.0875        -2.7916        -0.0066   1  20   0.0046   0.0041   0.0108  -0.0016   0.0032  -0.0040   0.00   40.8
2019/05/25 06:03:11.000        -1.0885        -2.7920        -0.0050   1  20   0.0046   0.0041   0.0108  -0.0016   0.0032  -0.0040   0.00   47.4
2019/05/25 06:03:12.000        -1.0875        -2.7931        -0.0052   1  20   0.0046   0.0041   0.0108  -0.0016   0.0032  -0.0040   0.00   24.6
2019/05/25 06:03:13.000        -1.0874        -2.7929        -0.0069   1  20   0.0046   0.0041   0.0108  -0.0016   0.0032  -0.0040   0.00   23.7
2019/05/25 06:03:14.000        -1.0871        -2.7924        -0.0020   1  20   0.0046   0.0041   0.0108  -0.0016   0.0032  -0.0040   0.00   38.0
2019/05/25 06:03:15.000        -1.0876        -2.7928        -0.0042   1  20   0.0046   0.0041   0.0108  -0.0016   0.0032  -0.0040   0.00   31.9
2019/05/25 06:03:16.000        -1.0869        -2.7930        -0.0053   1  20   0.0046   0.0041   0.0108  -0.0016   0.0032  -0.0040   0.00   67.2
2019/05/25 06:03:17.000        -1.0890        -2.7931        -0.0064   1  20   0.0046   0.0041   0.0108  -0.0016   0.0032  -0.0040   0.00   72.5
2019/05/25 06:03:18.000        -1.0872        -2.7922        -0.0057   1  20   0.0046   0.0041   0.0108  -0.0016   0.0033  -0.0040   0.00   57.2
2019/05/25 06:03:19.000        -1.0879        -2.7933        -0.0069   1  20   0.0046   0.0041   0.0108  -0.0016   0.0033  -0.0040   0.00   93.3
2019/05/25 06:03:20.000        -1.0867        -2.7922        -0.0061   1  20   0.0046   0.0041   0.0108  -0.0016   0.0033  -0.0040   0.00   68.1
2019/05/25 06:03:21.000        -1.0889        -2.7942        -0.0049   1  20   0.0046   0.0041   0.0108  -0.0016   0.0033  -0.0040   0.00   41.0
2019/05/25 06:03:22.000        -1.0878        -2.7935        -0.0045   1  20   0.0046   0.0041   0.0108  -0.0016   0.0033  -0.0040   0.00   91.9
2019/05/25 06:03:23.000        -1.0870        -2.7933        -0.0040   1  20   0.0046   0.0041   0.0108  -0.0016   0.0033  -0.0040   0.00   88.3
2019/05/25 06:03:24.000        -1.0867        -2.7925        -0.0068   1  20   0.0046   0.0041   0.0108  -0.0016   0.0033  -0.0040   0.00   90.6
2019/05/25 06:03:25.000        -1.0865        -2.7938        -0.0051   1  20   0.0046   0.0041   0.0108  -0.0016   0.0033  -0.0040   0.00   41.9
2019/05/25 06:03:26.000        -1.0869        -2.7937        -0.0078   1  20   0.0046   0.0041   0.0108  -0.0016   0.0033  -0.0040   0.00   40.1
2019/05/25 06:03:27.000        -1.0862        -2.7939        -0.0083   1  20   0.0046   0.0041   0.0108  -0.0016   0.0033  -0.0040   0.00   35.2
2019/05/25 06:03:28.000        -1.0866        -2.7931        -0.0079   1  20   0.0046   0.0041   0.0108  -0.0016   0.0033  -0.0040   0.00   84.1
2019/05/25 06:03:29.000        -1.0885        -2.7934        -0.0091   1  20   0.0046   0.0041   0.0108  -0.0016   0.0033  -0.0040   0.00   58.3
2019/05/25 06:03:30.000        -1.0866        -2.7925        -0.0069   1  20   0.0046   0.0041   0.0108  -0.0016   0.0033  -0.0040   0.00   58.7
2019/05/25 06:03:31.000        -1.0872        -2.7923        -0.0066   1  20   0.0046   0.0041   0.0108  -0.0016   0.0033  -0.0040   0.00   64.6
2019/05/25 06:03:32.000        -1.0871        -2.7924        -0.0067   1  20   0.0046   0.0041   0.0108  -0.0016   0.0033  -0.0040   0.00   40.9
2019/05/25 06:03:33.000        -1.0870        -2.7937        -0.0044   1  20   0.0046   0.0041   0.0108  -0.0016   0.0033  -0.0040   0.00   70.4
2019/05/25 06:03:34.000        -1.0879        -2.7937        -0.0068   1  20   0.0046   0.0041   0.0108  -0.0016   0.0033  -0.0040   0.00   65.4
2019/05/25 06:03:35.000        -1.0880        -2.7933        -0.0054   1  20   0.0046   0.0041   0.0108  -0.0016   0.0033  -0.0040   0.00   45.0
2019/05/25 06:03:36.000        -1.0864        -2.7930        -0.0038   1  20   0.0046   0.0041   0.0108  -0.0016   0.0033  -0.0040   0.00   46.3
2019/05/25 06:03:37.000        -1.0865        -2.7923        -0.0021   1  20   0.0046   0.0041   0.0108  -0.0016   0.0033  -0.0040   0.00   51.4
2019/05/25 06:03:38.000        -1.0876        -2.7920        -0.0043   1  20   0.0046   0.0041   0.0108  -0.0016   0.0033  -0.0040   0.00   40.0
2019/05/25 06:03:39.000        -1.0873        -2.7934        -0.0073   1  20   0.0046   0.0041   0.0108  -0.0016   0.0033  -0.0040   0.00   45.1
2019/05/25 06:03:40.000        -1.0872        -2.7928        -0.0058   1  20   0.0046   0.0041   0.0108  -0.0016   0.0033  -0.0040   0.00   26.0
2019/05/25 06:03:41.000        -1.0881        -2.7934        -0.0072   1  20   0.0046   0.0041   0.0108  -0.0016   0.0033  -0.0040   0.00   23.4
2019/05/25 06:03:42.000        -1.0881        -2.7920        -0.0070   1  20   0.0046   0.0041   0.0108  -0.0016   0.0033  -0.0040   0.00   23.6
2019/05/25 06:03:43.000        -1.0863        -2.7924        -0.0077   1  20   0.0046   0.0041   0.0108  -0.0016   0.0033  -0.0040   0.00   30.1
2019/05/25 06:03:44.000        -1.0883        -2.7913        -0.0059   1  20   0.0046   0.0041   0.0108  -0.0016   0.0033  -0.0040   0.00   21.1
2019/05/25 06:03:45.000        -1.0884        -2.7936        -0.0066   1  20   0.0046   0.0041   0.0108  -0.0016   0.0033  -0.0040   0.00   22.8
2019/05/25 06:03:46.000        -1.0876        -2.7925        -0.0080   1  20   0.0046   0.0041   0.0108  -0.0016   0.0033  -0.0040   0.00   16.6
2019/05/25 06:03:47.000        -1.0871        -2.7917        -0.0038   1  20   0.0046   0.0041   0.0108  -0.0016   0.0033  -0.0040   0.00   30.3
2019/05/25 06:03:48.000        -1.0881        -2.7935        -0.0059   1  20   0.0046   0.0041   0.0108  -0.0016   0.0033  -0.0040   0.00   18.6
2019/05/25 06:03:49.000        -1.0866        -2.7919        -0.0044   1  20   0.0046   0.0041   0.0108  -0.0016   0.0033  -0.0040   0.00   14.9
2019/05/25 06:03:50.000        -1.0884        -2.7912        -0.0032   1  20   0.0046   0.0041   0.0108  -0.0016   0.0033  -0.0040   0.00   26.8
2019/05/25 06:03:51.000        -1.0889        -2.7923        -0.0038   1  20   0.0046   0.0041   0.0108  -0.0016   0.0033  -0.0040   0.00   15.1
2019/05/25 06:03:52.000        -1.0876        -2.7933        -0.0033   1  20   0.0046   0.0041   0.0108  -0.0016   0.0033  -0.0040   0.00   17.5
2019/05/25 06:03:53.000        -1.0880        -2.7923        -0.0071   1  20   0.0046   0.0041   0.0108  -0.0016   0.0033  -0.0040   0.00   19.5
2019/05/25 06:03:54.000        -1.0886        -2.7934        -0.0029   1  20   0.0046   0.0041   0.0108  -0.0016   0.0033  -0.0040   0.00   24.4
2019/05/25 06:03:55.000        -1.0886        -2.7920        -0.0045   1  20   0.0046   0.0041   0.0108  -0.0016   0.0033  -0.0040   0.00   25.7
2019/05/25 06:03:56.000        -1.0877        -2.7930        -0.0082   1  20   0.0046   0.0041   0.0108  -0.0016   0.0033  -0.0040   0.00   19.3
2019/05/25 06:03:57.000        -1.0886        -2.7929        -0.0049   1  20   0.0046   0.0041   0.0108  -0.0016   0.0033  -0.0040   0.00   21.8
2019/05/25 06:03:58.000        -1.0884        -2.7928        -0.0067   1  20   0.0046   0.0041   0.0108  -0.0016   0.0033  -0.0040   0.00   51.9
2019/05/25 06:03:59.000        -1.0894        -2.7921        -0.0052   1  20   0.0046   0.0041   0.0108  -0.0016   0.0033  -0.0040   0.00   47.6
2019/05/25 06:04:00.000        -1.0896        -2.7919        -0.0013   1  20   0.0046   0.0041   0.0108  -0.0016   0.0033  -0.0040   0.00   72.1
2019/05/25 06:04:01.000        -1.0893        -2.7922        -0.0018   1  20   0.0046   0.0041   0.0108  -0.0016   0.0033  -0.0040   0.00   99.3
2019/05/25 06:04:02.000        -1.0883        -2.7945        -0.0048   1  20   0.0046   0.0041   0.0108  -0.0016   0.0033  -0.0040   0.00   33.2
2019/05/25 06:04:03.000        -1.0878        -2.7923        -0.0024   1  20   0.0046   0.0041   0.0108  -0.0016   0.0033  -0.0040   0.00   27.7
2019/05/25 06:04:04.000        -1.0886        -2.7924        -0.0059   1  20   0.0046   0.0041   0.0108  -0.0016   0.0033  -0.0040   0.00   28.2
2019/05/25 06:04:05.000        -1.0884        -2.7911        -0.0046   1  20   0.0046   0.0041   0.0108  -0.0016   0.0033  -0.0040   0.00   16.6
2019/05/25 06:04:06.000        -1.0874        -2.7932        -0.0093   1  20   0.0046   0.0041   0.0108  -0.0016   0.0033  -0.0040   0.00   16.3
2019/05/25 06:04:07.000        -1.0862        -2.7913        -0.0045   1  20   0.0046   0.0041   0.0108  -0.0016   0.0033  -0.0040   0.00   22.0
2019/05/25 06:04:08.000        -1.0879        -2.7921        -0.0059   1  20   0.0046   0.0041   0.0108  -0.0016   0.0033  -0.0040   0.00   15.0
2019/05/25 06:04:09.000        -1.0869        -2.7919        -0.0059   1  20   0.0046   0.0041   0.0108  -0.0016   0.0033  -0.0040   0.00   11.8
2019/05/25 06:04:10.000        -1.0871        -2.7929        -0.0038   1  20   0.0046   0.0041   0.0108  -0.0016   0.0033  -0.0040   0.00   20.1
2019/05/25 06:04:11.000        -1.0880        -2.7922        -0.0042   1  20   0.0046   0.0041   0.0108  -0.0016   0.0033  -0.0040   0.00   36.9
2019/05/25 06:04:12.000        -1.0881        -2.7915        -0.0043   1  20   0.0046   0.0041   0.0108  -0.0016   0.0033  -0.0040   0.00   35.8
2019/05/25 06:04:13.000        -1.0871        -2.7936        -0.0061   1  20   0.0046   0.0041   0.0108  -0.0016   0.0033  -0.0039   0.00   24.1
2019/05/25 06:04:14.000        -1.0877        -2.7927        -0.0080   1  20   0.0046   0.0041   0.0108  -0.0016   0.0033  -0.0039   0.00   23.5
2019/05/25 06:04:15.000        -1.0880        -2.7929        -0.0071   1  20   0.0046   0.0041   0.0108  -0.0016   0.0033  -0.0039   0.00   24.5
2019/05/25 06:04:16.000        -1.0882        -2.7903        -0.0030   1  20   0.0046   0.0041   0.0108  -0.0016   0.0033  -0.0039   0.00   25.3
2019/05/25 06:04:17.000        -1.0886        -2.7913        -0.0043   1  20   0.0046   0.0041   0.0108  -0.0016   0.0033  -0.0039   0.00   41.5
2019/05/25 06:04:18.000        -1.0876        -2.7917        -0.0038   1  20   0.0046   0.0041   0.0108  -0.0016   0.0033  -0.0039   0.00   30.7
2019/05/25 06:04:19.000        -1.0873        -2.7913        -0.0046   1  20   0.0046   0.0041   0.0108  -0.0016   0.0033  -0.0039   0.00   22.6
2019/05/25 06:04:20.000        -1.0881        -2.7930        -0.0064   1  20   0.0046   0.0041   0.0108  -0.0016   0.0033  -0.0039   0.00   23.3
2019/05/25 06:04:21.000        -1.0875        -2.7923        -0.0043   1  20   0.0046   0.0041   0.0108  -0.0016   0.0033  -0.0039   0.00   19.9
2019/05/25 06:04:22.000        -1.0876        -2.7935        -0.0054   1  20   0.0046   0.0041   0.0108  -0.0016   0.0033  -0.0039   0.00   31.0
2019/05/25 06:04:23.000        -1.0865        -2.7919        -0.0022   1  20   0.0046   0.0041   0.0108  -0.0016   0.0033  -0.0039   0.00   38.7
2019/05/25 06:04:24.000        -1.0878        -2.7921        -0.0010   1  20   0.0046   0.0041   0.0108  -0.0016   0.0033  -0.0039   0.00   34.1
2019/05/25 06:04:25.000        -1.0886        -2.7925        -0.0037   1  20   0.0046   0.0041   0.0108  -0.0016   0.0033  -0.0039   0.00   20.8
2019/05/25 06:04:26.000        -1.0885        -2.7910        -0.0043   1  20   0.0046   0.0041   0.0108  -0.0016   0.0033  -0.0039   0.00   20.6
2019/05/25 06:04:27.000        -1.0879        -2.7908        -0.0050   1  20   0.0046   0.0041   0.0108  -0.0016   0.0033  -0.0039   0.00   25.9
2019/05/25 06:04:28.000        -1.0881        -2.7930        -0.0095   1  20   0.0046   0.0041   0.0108  -0.0016   0.0033  -0.0039   0.00   32.8
2019/05/25 06:04:29.000        -1.0887        -2.7924        -0.0015   1  20   0.0046   0.0041   0.0108  -0.0016   0.0033  -0.0039   0.00   25.4
2019/05/25 06:04:30.000        -1.0878        -2.7918        -0.0026   1  20   0.0046   0.0041   0.0108  -0.0016   0.0033  -0.0039   0.00   25.3
2019/05/25 06:04:31.000        -1.0878        -2.7908        -0.0031   1  20   0.0046   0.0041   0.0108  -0.0016   0.0033  -0.0039   0.00   81.4
2019/05/25 06:04:32.000        -1.0874        -2.7919        -0.0076   1  20   0.0046   0.0041   0.0108  -0.0016   0.0033  -0.0039   0.00   31.1
2019/05/25 06:04:33.000        -1.0887        -2.7924        -0.0052   1  20   0.0046   0.0041   0.0108  -0.0016   0.0033  -0.0039   0.00   29.4
2019/05/25 06:04:34.000        -1.0882        -2.7921        -0.0038   1  20   0.0046   0.0041   0.0108  -0.0016   0.0033  -0.0039   0.00   38.1
2019/05/25 06:04:35.000        -1.0882        -2.7917        -0.0053   1  20   0.0046   0.0041   0.0108  -0.0016   0.0033  -0.0039   0.00   31.4
2019/05/25 06:04:36.000        -1.0888        -2.7923        -0.0062   1  20   0.0046   0.0041   0.0108  -0.0016   0.0033  -0.0039   0.00   24.3
2019/05/25 06:04:37.000        -1.0896        -2.7907        -0.0018   1  20   0.0046   0.0041   0.0108  -0.0016   0.0033  -0.0039   0.00   43.2
2019/05/25 06:04:38.000        -1.0896        -2.7913        -0.0024   1  20   0.0046   0.0041   0.0108  -0.0016   0.0033  -0.0039   0.00   60.6
2019/05/25 06:04:39.000        -1.0896        -2.7915        -0.0046   1  20   0.0046   0.0041   0.0108  -0.0016   0.0033  -0.0039   0.00   37.6
2019/05/25 06:04:40.000        -1.0906        -2.7917        -0.0059   1  20   0.0046   0.0041   0.0108  -0.0016   0.0033  -0.0039   0.00   31.2
2019/05/25 06:04:41.000        -1.0896        -2.7918        -0.0055   1  20   0.0046   0.0041   0.0108  -0.0016   0.0033  -0.0039   0.00   38.0
2019/05/25 06:04:42.000        -1.0890        -2.7919        -0.0013   1  20   0.0046   0.0041   0.0108  -0.0016   0.0033  -0.0039   0.00   47.8
2019/05/25 06:04:43.000        -1.0898        -2.7915        -0.0018   1  20   0.0046   0.0041   0.0108  -0.0016   0.0033  -0.0039   0.00   58.1
2019/05/25 06:04:44.000        -1.0898        -2.7921        -0.0030   1  20   0.0046   0.0041   0.0108  -0.0016   0.0033  -0.0039   0.00   41.7
2019/05/25 06:04:45.000        -1.0898        -2.7927        -0.0034   1  20   0.0046   0.0041   0.0108  -0.0016   0.0033  -0.0039   0.00   38.9
2019/05/25 06:04:46.000        -1.0894        -2.7921        -0.0018   1  20   0.0046   0.0041   0.0108  -0.0016   0.0033  -0.0039   0.00   33.6
2019/05/25 06:04:47.000        -1.0889        -2.7930        -0.0055   1  20   0.0046   0.0041   0.0108  -0.0016   0.0033  -0.0039   0.00   39.5
2019/05/25 06:04:48.000        -1.0897        -2.7929        -0.0033   1  20   0.0046   0.0041   0.0108  -0.0016   0.0033  -0.0039   0.00   85.4
2019/05/25 06:04:49.000        -1.0892        -2.7926        -0.0036   1  20   0.0046   0.0041   0.0108  -0.0016   0.0033  -0.0039   0.00   75.0
2019/05/25 06:04:50.000        -1.0888        -2.7922        -0.0042   1  20   0.0046   0.0041   0.0108  -0.0016   0.0033  -0.0039   0.00   47.0
2019/05/25 06:04:51.000        -1.0894        -2.7922        -0.0033   1  20   0.0046   0.0041   0.0108  -0.0016   0.0033  -0.0039   0.00  102.9
2019/05/25 06:04:52.000        -1.0893        -2.7917        -0.0028   1  20   0.0046   0.0041   0.0108  -0.0016   0.0033  -0.0039   0.00  131.7
2019/05/25 06:04:53.000        -1.0881        -2.7932        -0.0050   1  20   0.0046   0.0041   0.0108  -0.0016   0.0033  -0.0039   0.00  103.5
2019/05/25 06:04:54.000        -1.0894        -2.7932        -0.0033   1  20   0.0046   0.0041   0.0108  -0.0016   0.0033  -0.0039   0.00   69.9
2019/05/25 06:04:55.000        -1.0885        -2.7908        -0.0019   1  20   0.0046   0.0041   0.0108  -0.0016   0.0033  -0.0039   0.00   95.3
2019/05/25 06:04:56.000        -1.0891        -2.7914        -0.0020   1  20   0.0046   0.0041   0.0108  -0.0016   0.0033  -0.0039   0.00   67.6
2019/05/25 06:04:57.000        -1.0883        -2.7919        -0.0022   1  20   0.0046   0.0041   0.0108  -0.0016   0.0033  -0.0039   0.00   66.3
2019/05/25 06:04:58.000        -1.0897        -2.7918        -0.0024   1  20   0.0046   0.0041   0.0108  -0.0016   0.0033  -0.0039   0.00   63.3
2019/05/25 06:04:59.000        -1.0898        -2.7916        -0.0038   1  20   0.0046   0.0041   0.0108  -0.0016   0.0033  -0.0039   0.00   54.2
2019/05/25 06:05:00.000        -1.0896        -2.7925        -0.0031   1  20   0.0046   0.0041   0.0108  -0.0016   0.0033  -0.0039   0.00   30.2
2019/05/25 06:05:01.000        -1.0883        -2.7917        -0.0015   1  20   0.0046   0.0041   0.0108  -0.0016   0.0033  -0.0039   0.00   34.6
2019/05/25 06:05:02.000        -1.0892        -2.7915        -0.0030   1  20   0.0046   0.0041   0.0108  -0.0016   0.0033  -0.0039   0.00   42.9
2019/05/25 06:05:03.000        -1.0895        -2.7925        -0.0034   1  20   0.0046   0.0041   0.0108  -0.0016   0.0033  -0.0039   0.00   32.2
2019/05/25 06:05:04.000        -1.0892        -2.7906        -0.0001   1  20   0.0046   0.0041   0.0108  -0.0016   0.0033  -0.0039   0.00   32.4
2019/05/25 06:05:05.000        -1.0891        -2.7914         0.0004   1  20   0.0046   0.0041   0.0108  -0.0016   0.0033  -0.0039   0.00   28.7
2019/05/25 06:05:06.000        -1.0889        -2.7927        -0.0005   1  20   0.0046   0.0041   0.0108  -0.0016   0.0033  -0.0039   0.00   23.8
2019/05/25 06:05:07.000        -1.0883        -2.7914        -0.0019   1  20   0.0046   0.0041   0.0108  -0.0016   0.0033  -0.0039   0.00   39.3
2019/05/25 06:05:08.000        -1.0894        -2.7917        -0.0020   1  20   0.0046   0.0041   0.0108  -0.0016   0.0033  -0.0039   0.00   36.5
2019/05/25 06:05:09.000        -1.0876        -2.7920        -0.0040   1  20   0.0046   0.0041   0.0108  -0.0016   0.0033  -0.0039   0.00   46.0
2019/05/25 06:05:10.000        -1.0880        -2.7921        -0.0054   1  20   0.0046   0.0041   0.0108  -0.0016   0.0033  -0.0039   0.00   34.3
2019/05/25 06:05:11.000        -1.0882        -2.7917        -0.0043   1  20   0.0046   0.0041   0.0108  -0.0016   0.0033  -0.0039   0.00   27.8
2019/05/25 06:05:12.000        -1.0877        -2.7906        -0.0008   1  20   0.0046   0.0041   0.0108  -0.0016   0.0033  -0.0039   0.00   32.3
2019/05/25 06:05:13.000        -1.0887        -2.7906        -0.0032   1  20   0.0046   0.0041   0.0108  -0.0016   0.0033  -0.0039   0.00   22.6
2019/05/25 06:05:14.000        -1.0869        -2.7911        -0.0061   1  20   0.0046   0.0041   0.0108  -0.0016   0.0033  -0.0039   0.00   30.2
2019/05/25 06:05:15.000        -1.0882        -2.7906        -0.0039   1  20   0.0046   0.0041   0.0108  -0.0016   0.0033  -0.0039   0.00   71.7
2019/05/25 06:05:16.000        -1.0882        -2.7923        -0.0051   1  20   0.0046   0.0041   0.0108  -0.0016   0.0033  -0.0039   0.00   88.4
2019/05/25 06:05:17.000        -1.0883        -2.7905        -0.0058   1  20   0.0046   0.0041   0.0108  -0.0016   0.0033  -0.0039   0.00   75.5
2019/05/25 06:05:18.000        -1.0889        -2.7914        -0.0052   1  20   0.0046   0.0041   0.0108  -0.0016   0.0033  -0.0039   0.00   66.8
2019/05/25 06:05:19.000        -1.0888        -2.7906        -0.0033   1  20   0.0046   0.0041   0.0108  -0.0016   0.0033  -0.0039   0.00   44.4
2019/05/25 06:05:20.000        -1.0877        -2.7926        -0.0045   1  20   0.0046   0.0041   0.0108  -0.0016   0.0033  -0.0039   0.00   26.5
2019/05/25 06:05:21.000        -1.0886        -2.7911        -0.0036   1  20   0.0046   0.0041   0.0108  -0.0016   0.0033  -0.0039   0.00   67.8
2019/05/25 06:05:22.000        -1.0892        -2.7908        -0.0071   1  20   0.0046   0.0041   0.0108  -0.0016   0.0033  -0.0039   0.00   60.8
2019/05/25 06:05:23.000        -1.0891        -2.7917        -0.0071   1  20   0.0046   0.0041   0.0108  -0.0016   0.0033  -0.0039   0.00   46.4
2019/05/25 06:05:24.000        -1.0884        -2.7928        -0.0068   1  20   0.0046   0.0041   0.0108  -0.0016   0.0033  -0.0039   0.00   79.0
2019/05/25 06:05:25.000        -1.0889        -2.7912        -0.0056   1  20   0.0046   0.0041   0.0108  -0.0016   0.0033  -0.0039   0.00   57.7
2019/05/25 06:05:26.000        -1.0887        -2.7932        -0.0072   1  20   0.0046   0.0041   0.0108  -0.0016   0.0033  -0.0039   0.00  108.3
2019/05/25 06:05:27.000        -1.0895        -2.7927        -0.0043   1  20   0.0046   0.0041   0.0108  -0.0016   0.0033  -0.0039   0.00   94.3
2019/05/25 06:05:28.000        -1.0891        -2.7910        -0.0054   1  20   0.0046   0.0041   0.0108  -0.0016   0.0033  -0.0039   0.00  130.2
2019/05/25 06:05:29.000        -1.0890        -2.7924        -0.0074   1  20   0.0046   0.0041   0.0108  -0.0016   0.0033  -0.0039   0.00   95.8
2019/05/25 06:05:30.000        -1.0899        -2.7935        -0.0034   1  20   0.0046   0.0041   0.0108  -0.0016   0.0033  -0.0039   0.00   84.3
2019/05/25 06:05:31.000        -1.0895        -2.7927        -0.0047   1  20   0.0046   0.0041   0.0108  -0.0016   0.0033  -0.0039   0.00   70.5
2019/05/25 06:05:32.000        -1.0889        -2.7926        -0.0062   1  20   0.0046   0.0041   0.0108  -0.0016   0.0033  -0.0039   0.00   49.0
2019/05/25 06:05:33.000        -1.0882        -2.7930        -0.0045   1  20   0.0046   0.0041   0.0108  -0.0016   0.0033  -0.0039   0.00   53.4
2019/05/25 06:05:34.000        -1.0888        -2.7929        -0.0057   1  20   0.0046   0.0041   0.0108  -0.0016   0.0033  -0.0039   0.00   86.5
2019/05/25 06:05:35.000        -1.0884        -2.7927        -0.0068   1  20   0.0046   0.0041   0.0108  -0.0016   0.0033  -0.0039   0.00   45.0
2019/05/25 06:05:36.000        -1.0890        -2.7917        -0.0065   1  20   0.0046   0.0041   0.0108  -0.0016   0.0033  -0.0039   0.00   55.4
2019/05/25 06:05:37.000        -1.0893        -2.7925        -0.0052   1  20   0.0046   0.0041   0.0108  -0.0016   0.0033  -0.0039   0.00  208.8
2019/05/25 06:05:38.000        -1.0882        -2.7915        -0.0070   1  20   0.0046   0.0041   0.0108  -0.0016   0.0033  -0.0039   0.00  105.3
2019/05/25 06:05:39.000        -1.0881        -2.7916        -0.0020   1  20   0.0046   0.0041   0.0108  -0.0016   0.0033  -0.0039   0.00   80.8
2019/05/25 06:05:40.000        -1.0888        -2.7924        -0.0049   1  20   0.0046   0.0041   0.0108  -0.0016   0.0033  -0.0039   0.00   38.7
2019/05/25 06:05:41.000        -1.0882        -2.7926        -0.0040   1  20   0.0046   0.0041   0.0108  -0.0016   0.0033  -0.0039   0.00   46.3
2019/05/25 06:05:42.000        -1.0880        -2.7923        -0.0053   1  20   0.0046   0.0041   0.0108  -0.0016   0.0033  -0.0039   0.00   61.9
2019/05/25 06:05:43.000        -1.0882        -2.7924        -0.0035   1  20   0.0046   0.0041   0.0108  -0.0016   0.0033  -0.0039   0.00   34.0
2019/05/25 06:05:44.000        -1.0887        -2.7924        -0.0058   1  20   0.0046   0.0041   0.0108  -0.0016   0.0033  -0.0039   0.00   29.9
2019/05/25 06:05:45.000        -1.0887        -2.7915        -0.0038   1  20   0.0046   0.0041   0.0108  -0.0016   0.0033  -0.0039   0.00   64.7
2019/05/25 06:05:46.000        -1.0888        -2.7908        -0.0027   1  20   0.0046   0.0041   0.0109  -0.0016   0.0033  -0.0039   0.00   67.1
2019/05/25 06:05:47.000        -1.0891        -2.7924        -0.0049   1  20   0.0046   0.0041   0.0109  -0.0016   0.0033  -0.0039   0.00   88.1
2019/05/25 06:05:48.000        -1.0879        -2.7904         0.0000   1  20   0.0046   0.0041   0.0109  -0.0016   0.0033  -0.0039   0.00   88.7
2019/05/25 06:05:49.000        -1.0889        -2.7903        -0.0038   1  20   0.0046   0.0041   0.0109  -0.0016   0.0033  -0.0039   0.00  118.9
2019/05/25 06:05:50.000        -1.0893        -2.7908        -0.0039   1  20   0.0046   0.0041   0.0109  -0.0016   0.0033  -0.0039   0.00   69.1
2019/05/25 06:05:51.000        -1.0884        -2.7920        -0.0044   1  20   0.0046   0.0041   0.0109  -0.0016   0.0033  -0.0039   0.00   59.9
2019/05/25 06:05:52.000        -1.0892        -2.7908        -0.0031   1  20   0.0046   0.0041   0.0109  -0.0016   0.0033  -0.0039   0.00   41.8
2019/05/25 06:05:53.000        -1.0879        -2.7911        -0.0037   1  20   0.0046   0.0041   0.0109  -0.0016   0.0033  -0.0039   0.00   54.1
2019/05/25 06:05:54.000        -1.0871        -2.7908        -0.0037   1  20   0.0046   0.0041   0.0109  -0.0016   0.0033  -0.0039   0.00   52.3
2019/05/25 06:05:55.000        -1.0882        -2.7905        -0.0036   1  20   0.0046   0.0041   0.0109  -0.0016   0.0033  -0.0039   0.00   54.0
2019/05/25 06:05:56.000        -1.0878        -2.7914        -0.0054   1  20   0.0046   0.0041   0.0109  -0.0016   0.0033  -0.0039   0.00   30.2
2019/05/25 06:05:57.000        -1.0891        -2.7912        -0.0043   1  20   0.0046   0.0041   0.0109  -0.0016   0.0033  -0.0039   0.00   50.3
2019/05/25 06:05:58.000        -1.0887        -2.7911        -0.0010   1  20   0.0046   0.0041   0.0109  -0.0016   0.0033  -0.0039   0.00   36.9
2019/05/25 06:05:59.000        -1.0887        -2.7908        -0.0040   1  20   0.0046   0.0041   0.0109  -0.0016   0.0033  -0.0039   0.00  150.9
2019/05/25 06:06:00.000        -1.0871        -2.7902        -0.0035   1  20   0.0046   0.0041   0.0109  -0.0016   0.0033  -0.0039   0.00  159.1
2019/05/25 06:06:01.000        -1.0884        -2.7913        -0.0002   1  20   0.0046   0.0041   0.0109  -0.0016   0.0033  -0.0039   0.00   67.7
2019/05/25 06:06:02.000        -1.0887        -2.7906        -0.0050   1  20   0.0046   0.0041   0.0109  -0.0016   0.0033  -0.0039   0.00   67.3
2019/05/25 06:06:03.000        -1.0886        -2.7919        -0.0026   1  20   0.0046   0.0041   0.0109  -0.0016   0.0033  -0.0039   0.00   71.5
2019/05/25 06:06:04.000        -1.0887        -2.7917        -0.0042   1  20   0.0046   0.0041   0.0109  -0.0016   0.0033  -0.0039   0.00  106.0
2019/05/25 06:06:05.000        -1.0893        -2.7919        -0.0026   1  20   0.0046   0.0041   0.0109  -0.0016   0.0033  -0.0039   0.00   45.3
2019/05/25 06:06:06.000        -1.0899        -2.7924        -0.0037   1  20   0.0046   0.0041   0.0109  -0.0016   0.0033  -0.0039   0.00   78.1
2019/05/25 06:06:07.000        -1.0893        -2.7919        -0.0027   1  20   0.0046   0.0041   0.0109  -0.0016   0.0033  -0.0039   0.00   39.4
2019/05/25 06:06:08.000        -1.0901        -2.7927        -0.0034   1  20   0.0046   0.0041   0.0109  -0.0016   0.0033  -0.0039   0.00   30.3
2019/05/25 06:06:09.000        -1.0898        -2.7910        -0.0022   1  20   0.0046   0.0041   0.0109  -0.0016   0.0033  -0.0039   0.00  100.0
2019/05/25 06:06:10.000        -1.0901        -2.7921        -0.0020   1  20   0.0046   0.0041   0.0109  -0.0016   0.0033  -0.0039   0.00   91.2
2019/05/25 06:06:11.000        -1.0901        -2.7915        -0.0006   1  20   0.0046   0.0041   0.0109  -0.0016   0.0033  -0.0039   0.00   70.8
2019/05/25 06:06:12.000        -1.0898        -2.7915        -0.0024   1  20   0.0046   0.0041   0.0109  -0.0016   0.0033  -0.0039   0.00  123.5
2019/05/25 06:06:13.000        -1.0895        -2.7914        -0.0021   1  20   0.0046   0.0041   0.0109  -0.0016   0.0033  -0.0039   0.00  138.3
2019/05/25 06:06:14.000        -1.0905        -2.7907         0.0005   1  20   0.0046   0.0041   0.0109  -0.0016   0.0033  -0.0039   0.00   78.1
2019/05/25 06:06:15.000        -1.0889        -2.7909        -0.0022   1  20   0.0046   0.0041   0.0109  -0.0016   0.0033  -0.0039   0.00   85.3
2019/05/25 06:06:16.000        -1.0894        -2.7914         0.0003   1  20   0.0046   0.0041   0.0109  -0.0016   0.0033  -0.0039   0.00  104.4
2019/05/25 06:06:17.000        -1.0901        -2.7925        -0.0008   1  20   0.0046   0.0041   0.0109  -0.0016   0.0033  -0.0039   0.00  145.1
2019/05/25 06:06:18.000        -1.0898        -2.7916         0.0009   1  20   0.0046   0.0041   0.0109  -0.0016   0.0033  -0.0039   0.00   85.7
2019/05/25 06:06:19.000        -1.0895        -2.7911        -0.0027   1  20   0.0046   0.0041   0.0109  -0.0016   0.0033  -0.0039   0.00  138.9
2019/05/25 06:06:20.000        -1.0895        -2.7929        -0.0027   1  20   0.0046   0.0041   0.0109  -0.0016   0.0033  -0.0039   0.00  146.9
2019/05/25 06:06:21.000        -1.0887        -2.7913         0.0021   1  20   0.0046   0.0041   0.0109  -0.0016   0.0033  -0.0039   0.00  104.6
2019/05/25 06:06:22.000        -1.0897        -2.7907         0.0013   1  20   0.0046   0.0041   0.0109  -0.0016   0.0033  -0.0039   0.00  123.4
2019/05/25 06:06:23.000        -1.0890        -2.7913        -0.0022   1  20   0.0046   0.0041   0.0109  -0.0016   0.0033  -0.0039   0.00   74.6
2019/05/25 06:06:24.000        -1.0901        -2.7918         0.0004   1  20   0.0046   0.0041   0.0109  -0.0016   0.0033  -0.0039   0.00   58.7
2019/05/25 06:06:25.000        -1.0897        -2.7917        -0.0004   1  20   0.0046   0.0041   0.0109  -0.0016   0.0033  -0.0039   0.00   53.8
2019/05/25 06:06:26.000        -1.0892        -2.7914        -0.0016   1  20   0.0046   0.0041   0.0109  -0.0016   0.0033  -0.0039   0.00   34.6
2019/05/25 06:06:27.000        -1.0891        -2.7911         0.0007   1  20   0.0046   0.0041   0.0109  -0.0016   0.0033  -0.0039   0.00   52.8
2019/05/25 06:06:28.000        -1.0883        -2.7910        -0.0033   1  20   0.0046   0.0041   0.0109  -0.0016   0.0033  -0.0039   0.00   75.5
2019/05/25 06:06:29.000        -1.0882        -2.7910         0.0019   1  20   0.0046   0.0041   0.0109  -0.0016   0.0033  -0.0039   0.00   40.9
2019/05/25 06:06:30.000        -1.0888        -2.7917        -0.0006   1  20   0.0046   0.0041   0.0109  -0.0016   0.0033  -0.0039   0.00   70.5
2019/05/25 06:06:31.000        -1.0897        -2.7921        -0.0004   1  20   0.0046   0.0041   0.0109  -0.0016   0.0033  -0.0039   0.00   41.6
2019/05/25 06:06:32.000        -1.0868        -2.7906         0.0022   1  20   0.0046   0.0041   0.0109  -0.0016   0.0033  -0.0039   0.00   28.3
2019/05/25 06:06:33.000        -1.0882        -2.7906        -0.0020   1  20   0.0046   0.0041   0.0109  -0.0016   0.0033  -0.0039   0.00   38.3
2019/05/25 06:06:34.000        -1.0887        -2.7920        -0.0007   1  20   0.0046   0.0041   0.0109  -0.0016   0.0033  -0.0039   0.00   40.6
2019/05/25 06:06:35.000        -1.0873        -2.7909        -0.0028   1  20   0.0046   0.0041   0.0109  -0.0016   0.0033  -0.0039   0.00   41.9
2019/05/25 06:06:36.000        -1.0877        -2.7908        -0.0008   1  20   0.0046   0.0041   0.0109  -0.0016   0.0033  -0.0039   0.00   24.5
2019/05/25 06:06:37.000        -1.0884        -2.7915        -0.0030   1  20   0.0046   0.0041   0.0109  -0.0016   0.0033  -0.0039   0.00   24.9
2019/05/25 06:06:38.000        -1.0881        -2.7925        -0.0031   1  20   0.0046   0.0041   0.0109  -0.0016   0.0033  -0.0039   0.00   24.5
2019/05/25 06:06:39.000        -1.0874        -2.7913        -0.0022   1  20   0.0046   0.0041   0.0109  -0.0016   0.0033  -0.0039   0.00   41.0
2019/05/25 06:06:40.000        -1.0885        -2.7916        -0.0015   1  20   0.0046   0.0041   0.0109  -0.0016   0.0033  -0.0039   0.00   53.7
2019/05/25 06:06:41.000        -1.0874        -2.7907        -0.0025   1  20   0.0046   0.0041   0.0109  -0.0016   0.0033  -0.0039   0.00   98.4
2019/05/25 06:06:42.000        -1.0892        -2.7916        -0.0028   1  20   0.0046   0.0041   0.0109  -0.0016   0.0033  -0.0039   0.00   99.5
