% program   : RTKPOST ver.2.4.3
% inp file  : C:\Robert\Otago\Ryan Carter\First test\battery_convert.19o
% inp file  : C:\Robert\Otago\Ryan Carter\First test\ryantest_convert.19o
% inp file  : C:\Robert\Otago\Ryan Carter\First test\ryantest_navfile.19p
% obs start : 2019/05/08 04:09:44.0 GPST (week2052 274184.0s)
% obs end   : 2019/05/08 04:14:18.0 GPST (week2052 274458.0s)
% pos mode  : kinematic
% freqs     : L1
% solution  : forward
% elev mask : 10.0 deg
% dynamics  : off
% tidecorr  : off
% ionos opt : off
% tropo opt : saastamoinen
% ephemeris : broadcast
% navi sys  : gps galileo qzss
% amb res   : instantaneous
% val thres : 1.0
% antenna1  :                       ( 0.0000  0.0000  0.0000)
% antenna2  :                       ( 0.0000  0.0000  0.0000)
% ref pos   : -4387874.1138    733418.6130  -4555184.1813
%
% (x/y/z-ecef=WGS84,Q=1:fix,2:float,3:sbas,4:dgps,5:single,6:ppp,ns=# of satellites)
%  GPST                      x-ecef(m)      y-ecef(m)      z-ecef(m)   Q  ns   sdx(m)   sdy(m)   sdz(m)  sdxy(m)  sdyz(m)  sdzx(m) age(s)  ratio
2019/05/08 04:09:44.000  -4387871.9594    733419.3606  -4555186.1243   1  19   0.0086   0.0046   0.0094  -0.0047  -0.0046   0.0072   0.00   61.2
2019/05/08 04:09:45.000  -4387871.9593    733419.3596  -4555186.1257   1  19   0.0086   0.0046   0.0094  -0.0047  -0.0046   0.0072   0.00   44.2
2019/05/08 04:09:46.000  -4387871.9581    733419.3601  -4555186.1249   1  19   0.0086   0.0046   0.0094  -0.0047  -0.0046   0.0072   0.00   59.4
2019/05/08 04:09:47.000  -4387871.9567    733419.3592  -4555186.1220   1  19   0.0086   0.0046   0.0094  -0.0047  -0.0046   0.0072   0.00   32.2
2019/05/08 04:09:48.000  -4387871.9579    733419.3590  -4555186.1243   1  19   0.0086   0.0046   0.0094  -0.0047  -0.0046   0.0072   0.00   21.4
2019/05/08 04:09:49.000  -4387871.9600    733419.3593  -4555186.1249   1  19   0.0086   0.0046   0.0094  -0.0047  -0.0046   0.0072   0.00   13.6
2019/05/08 04:09:50.000  -4387871.9541    733419.3578  -4555186.1206   1  19   0.0086   0.0046   0.0094  -0.0047  -0.0046   0.0072   0.00   16.3
2019/05/08 04:09:51.000  -4387871.9566    733419.3586  -4555186.1200   1  19   0.0086   0.0046   0.0094  -0.0047  -0.0046   0.0072   0.00   22.2
2019/05/08 04:09:52.000  -4387871.9581    733419.3594  -4555186.1231   1  19   0.0086   0.0046   0.0094  -0.0047  -0.0046   0.0072   0.00   13.3
2019/05/08 04:09:53.000  -4387871.9543    733419.3589  -4555186.1205   1  19   0.0086   0.0046   0.0094  -0.0047  -0.0046   0.0072   0.00   19.8
2019/05/08 04:09:54.000  -4387871.9562    733419.3562  -4555186.1186   1  19   0.0086   0.0046   0.0094  -0.0047  -0.0046   0.0072   0.00   23.5
2019/05/08 04:09:55.000  -4387871.9559    733419.3595  -4555186.1220   1  19   0.0084   0.0046   0.0091  -0.0048  -0.0046   0.0070   0.00   25.5
2019/05/08 04:09:56.000  -4387871.9567    733419.3584  -4555186.1232   1  19   0.0084   0.0046   0.0091  -0.0048  -0.0046   0.0070   0.00   16.9
2019/05/08 04:09:57.000  -4387871.9574    733419.3578  -4555186.1218   1  19   0.0084   0.0046   0.0091  -0.0048  -0.0046   0.0070   0.00   14.7
2019/05/08 04:09:58.000  -4387871.9580    733419.3572  -4555186.1222   1  19   0.0084   0.0046   0.0091  -0.0048  -0.0046   0.0070   0.00   13.5
2019/05/08 04:09:59.000  -4387871.9580    733419.3577  -4555186.1238   1  19   0.0084   0.0046   0.0091  -0.0048  -0.0046   0.0070   0.00   17.7
2019/05/08 04:10:00.000  -4387871.9555    733419.3582  -4555186.1219   1  19   0.0084   0.0046   0.0091  -0.0048  -0.0046   0.0070   0.00   15.9
2019/05/08 04:10:01.000  -4387871.9554    733419.3576  -4555186.1211   1  19   0.0084   0.0046   0.0091  -0.0048  -0.0046   0.0070   0.00   13.6
2019/05/08 04:10:02.000  -4387871.9568    733419.3587  -4555186.1202   1  19   0.0084   0.0046   0.0091  -0.0048  -0.0046   0.0070   0.00   16.1
2019/05/08 04:10:03.000  -4387871.9562    733419.3584  -4555186.1201   1  19   0.0084   0.0046   0.0091  -0.0048  -0.0046   0.0070   0.00   13.0
2019/05/08 04:10:04.000  -4387871.9590    733419.3586  -4555186.1221   1  19   0.0084   0.0046   0.0091  -0.0048  -0.0046   0.0070   0.00   22.1
2019/05/08 04:10:05.000  -4387871.9597    733419.3586  -4555186.1251   1  19   0.0084   0.0046   0.0091  -0.0048  -0.0046   0.0070   0.00   18.2
2019/05/08 04:10:06.000  -4387871.9595    733419.3599  -4555186.1260   1  19   0.0084   0.0046   0.0091  -0.0048  -0.0046   0.0070   0.00   27.9
2019/05/08 04:10:07.000  -4387871.9599    733419.3592  -4555186.1230   1  19   0.0084   0.0046   0.0091  -0.0048  -0.0046   0.0070   0.00   44.0
2019/05/08 04:10:08.000  -4387871.9589    733419.3589  -4555186.1238   1  19   0.0084   0.0046   0.0091  -0.0048  -0.0046   0.0070   0.00   26.1
2019/05/08 04:10:09.000  -4387871.9589    733419.3593  -4555186.1244   1  19   0.0084   0.0046   0.0091  -0.0048  -0.0046   0.0070   0.00   34.5
2019/05/08 04:10:10.000  -4387871.9568    733419.3582  -4555186.1224   1  19   0.0084   0.0046   0.0091  -0.0048  -0.0046   0.0070   0.00   35.2
2019/05/08 04:10:11.000  -4387871.9609    733419.3599  -4555186.1264   1  19   0.0084   0.0046   0.0091  -0.0048  -0.0046   0.0070   0.00   52.2
2019/05/08 04:10:12.000  -4387871.9591    733419.3595  -4555186.1231   1  19   0.0084   0.0046   0.0091  -0.0048  -0.0046   0.0070   0.00   68.7
2019/05/08 04:10:13.000  -4387871.9578    733419.3584  -4555186.1224   1  19   0.0084   0.0046   0.0091  -0.0048  -0.0046   0.0070   0.00   86.4
2019/05/08 04:10:14.000  -4387871.9618    733419.3592  -4555186.1275   1  19   0.0084   0.0046   0.0091  -0.0048  -0.0047   0.0070   0.00   61.4
2019/05/08 04:10:15.000  -4387871.9605    733419.3600  -4555186.1249   1  19   0.0084   0.0046   0.0091  -0.0048  -0.0047   0.0070   0.00   48.0
2019/05/08 04:10:16.000  -4387871.9603    733419.3594  -4555186.1258   1  19   0.0084   0.0046   0.0091  -0.0048  -0.0047   0.0070   0.00   27.7
2019/05/08 04:10:17.000  -4387871.9578    733419.3591  -4555186.1241   1  19   0.0084   0.0046   0.0091  -0.0048  -0.0047   0.0070   0.00   38.3
2019/05/08 04:10:18.000  -4387871.9601    733419.3596  -4555186.1247   1  19   0.0084   0.0046   0.0091  -0.0048  -0.0047   0.0070   0.00   39.9
2019/05/08 04:10:19.000  -4387871.9584    733419.3587  -4555186.1234   1  19   0.0084   0.0046   0.0091  -0.0048  -0.0047   0.0070   0.00   46.0
2019/05/08 04:10:20.000  -4387871.9569    733419.3587  -4555186.1223   1  19   0.0084   0.0046   0.0091  -0.0048  -0.0047   0.0070   0.00   76.6
2019/05/08 04:10:21.000  -4387871.9590    733419.3580  -4555186.1248   1  19   0.0084   0.0046   0.0091  -0.0048  -0.0047   0.0070   0.00   36.6
2019/05/08 04:10:22.000  -4387871.9577    733419.3581  -4555186.1250   1  19   0.0084   0.0046   0.0091  -0.0047  -0.0047   0.0070   0.00   37.4
2019/05/08 04:10:23.000  -4387871.9579    733419.3580  -4555186.1232   1  19   0.0084   0.0046   0.0091  -0.0047  -0.0047   0.0070   0.00   71.0
2019/05/08 04:10:24.000  -4387871.9593    733419.3594  -4555186.1224   1  19   0.0084   0.0046   0.0091  -0.0047  -0.0047   0.0070   0.00   50.7
2019/05/08 04:10:25.000  -4387871.9596    733419.3588  -4555186.1249   1  19   0.0084   0.0046   0.0091  -0.0047  -0.0047   0.0070   0.00   69.0
2019/05/08 04:10:26.000  -4387871.9578    733419.3580  -4555186.1223   1  19   0.0084   0.0046   0.0091  -0.0047  -0.0047   0.0070   0.00   67.8
2019/05/08 04:10:27.000  -4387871.9561    733419.3581  -4555186.1225   1  19   0.0084   0.0046   0.0091  -0.0047  -0.0047   0.0070   0.00   80.9
2019/05/08 04:10:28.000  -4387871.9601    733419.3597  -4555186.1245   1  19   0.0084   0.0046   0.0091  -0.0047  -0.0047   0.0070   0.00   34.4
2019/05/08 04:10:29.000  -4387871.9563    733419.3580  -4555186.1226   1  19   0.0084   0.0046   0.0091  -0.0047  -0.0047   0.0070   0.00   28.6
2019/05/08 04:10:30.000  -4387871.9572    733419.3588  -4555186.1231   1  19   0.0084   0.0046   0.0091  -0.0047  -0.0047   0.0070   0.00   24.2
2019/05/08 04:10:31.000  -4387871.9580    733419.3586  -4555186.1241   1  19   0.0084   0.0046   0.0091  -0.0047  -0.0047   0.0070   0.00   14.7
2019/05/08 04:10:32.000  -4387871.9574    733419.3594  -4555186.1236   1  19   0.0084   0.0046   0.0091  -0.0047  -0.0047   0.0070   0.00   16.1
2019/05/08 04:10:33.000  -4387871.9593    733419.3585  -4555186.1224   1  19   0.0084   0.0046   0.0091  -0.0047  -0.0047   0.0070   0.00   16.1
2019/05/08 04:10:34.000  -4387871.9592    733419.3581  -4555186.1245   1  19   0.0084   0.0046   0.0091  -0.0047  -0.0047   0.0070   0.00   19.4
2019/05/08 04:10:35.000  -4387871.9600    733419.3583  -4555186.1241   1  19   0.0084   0.0046   0.0091  -0.0047  -0.0047   0.0070   0.00   33.4
2019/05/08 04:10:36.000  -4387871.9592    733419.3590  -4555186.1243   1  19   0.0084   0.0046   0.0091  -0.0047  -0.0047   0.0070   0.00   39.0
2019/05/08 04:10:37.000  -4387871.9592    733419.3576  -4555186.1240   1  19   0.0084   0.0046   0.0091  -0.0047  -0.0047   0.0070   0.00   24.9
2019/05/08 04:10:38.000  -4387871.9606    733419.3582  -4555186.1248   1  19   0.0084   0.0046   0.0091  -0.0047  -0.0047   0.0070   0.00   40.2
2019/05/08 04:10:39.000  -4387871.9581    733419.3580  -4555186.1227   1  19   0.0084   0.0046   0.0091  -0.0047  -0.0047   0.0070   0.00   30.7
2019/05/08 04:10:40.000  -4387871.9620    733419.3593  -4555186.1255   1  19   0.0084   0.0046   0.0091  -0.0047  -0.0047   0.0070   0.00   25.8
2019/05/08 04:10:41.000  -4387871.9584    733419.3583  -4555186.1228   1  19   0.0084   0.0046   0.0091  -0.0047  -0.0047   0.0070   0.00   44.0
2019/05/08 04:10:42.000  -4387871.9599    733419.3583  -4555186.1234   1  19   0.0084   0.0046   0.0091  -0.0047  -0.0047   0.0070   0.00   81.0
2019/05/08 04:10:43.000  -4387871.9596    733419.3577  -4555186.1224   1  19   0.0084   0.0046   0.0091  -0.0047  -0.0047   0.0070   0.00   38.8
2019/05/08 04:10:44.000  -4387871.9583    733419.3580  -4555186.1237   1  19   0.0084   0.0046   0.0091  -0.0047  -0.0047   0.0070   0.00   32.0
2019/05/08 04:10:45.000  -4387871.9624    733419.3586  -4555186.1263   1  19   0.0084   0.0046   0.0091  -0.0047  -0.0047   0.0070   0.00   26.0
2019/05/08 04:10:46.000  -4387871.9602    733419.3577  -4555186.1244   1  19   0.0084   0.0046   0.0091  -0.0047  -0.0047   0.0070   0.00   38.6
2019/05/08 04:10:47.000  -4387871.9607    733419.3596  -4555186.1248   1  19   0.0084   0.0046   0.0091  -0.0047  -0.0047   0.0070   0.00   47.1
2019/05/08 04:10:48.000  -4387871.9588    733419.3579  -4555186.1223   1  19   0.0084   0.0046   0.0091  -0.0047  -0.0047   0.0070   0.00   55.1
2019/05/08 04:10:49.000  -4387871.9622    733419.3595  -4555186.1277   1  19   0.0084   0.0046   0.0091  -0.0047  -0.0047   0.0070   0.00   61.9
2019/05/08 04:10:50.000  -4387871.9593    733419.3584  -4555186.1263   1  19   0.0084   0.0046   0.0091  -0.0047  -0.0047   0.0070   0.00   42.5
2019/05/08 04:10:51.000  -4387871.9590    733419.3584  -4555186.1244   1  19   0.0084   0.0046   0.0091  -0.0047  -0.0047   0.0070   0.00   53.6
2019/05/08 04:10:52.000  -4387871.9585    733419.3588  -4555186.1244   1  19   0.0084   0.0046   0.0091  -0.0047  -0.0047   0.0070   0.00   39.5
2019/05/08 04:10:53.000  -4387871.9589    733419.3586  -4555186.1216   1  19   0.0084   0.0046   0.0091  -0.0047  -0.0047   0.0070   0.00   39.9
2019/05/08 04:10:54.000  -4387871.9590    733419.3590  -4555186.1216   1  19   0.0084   0.0046   0.0091  -0.0047  -0.0047   0.0070   0.00   47.3
2019/05/08 04:10:55.000  -4387871.9569    733419.3582  -4555186.1237   1  19   0.0084   0.0046   0.0091  -0.0047  -0.0047   0.0070   0.00   40.0
2019/05/08 04:10:56.000  -4387871.9607    733419.3593  -4555186.1246   1  19   0.0084   0.0046   0.0091  -0.0047  -0.0047   0.0070   0.00   56.3
2019/05/08 04:10:57.000  -4387871.9599    733419.3604  -4555186.1257   1  19   0.0084   0.0046   0.0091  -0.0047  -0.0047   0.0070   0.00   76.2
2019/05/08 04:10:58.000  -4387871.9600    733419.3602  -4555186.1253   1  19   0.0084   0.0046   0.0091  -0.0047  -0.0047   0.0070   0.00   51.6
2019/05/08 04:10:59.000  -4387871.9604    733419.3596  -4555186.1237   1  19   0.0084   0.0046   0.0091  -0.0047  -0.0047   0.0070   0.00   38.4
2019/05/08 04:11:00.000  -4387871.9573    733419.3595  -4555186.1224   1  19   0.0084   0.0046   0.0091  -0.0047  -0.0047   0.0070   0.00   35.3
2019/05/08 04:11:01.000  -4387871.9594    733419.3608  -4555186.1248   1  19   0.0084   0.0046   0.0091  -0.0047  -0.0047   0.0070   0.00   21.4
2019/05/08 04:11:02.000  -4387871.9593    733419.3604  -4555186.1243   1  19   0.0084   0.0046   0.0091  -0.0047  -0.0047   0.0070   0.00   24.5
2019/05/08 04:11:03.000  -4387871.9595    733419.3608  -4555186.1224   1  19   0.0084   0.0046   0.0091  -0.0047  -0.0047   0.0070   0.00   38.0
2019/05/08 04:11:04.000  -4387871.9594    733419.3606  -4555186.1240   1  19   0.0084   0.0046   0.0091  -0.0047  -0.0047   0.0070   0.00   28.2
2019/05/08 04:11:05.000  -4387871.9599    733419.3610  -4555186.1247   1  19   0.0084   0.0046   0.0091  -0.0047  -0.0047   0.0070   0.00   49.8
2019/05/08 04:11:06.000  -4387871.9612    733419.3606  -4555186.1261   1  19   0.0084   0.0046   0.0091  -0.0047  -0.0047   0.0070   0.00   27.5
2019/05/08 04:11:07.000  -4387871.9603    733419.3602  -4555186.1255   1  19   0.0084   0.0046   0.0091  -0.0047  -0.0047   0.0070   0.00   27.9
2019/05/08 04:11:08.000  -4387871.9617    733419.3599  -4555186.1227   1  19   0.0084   0.0046   0.0091  -0.0047  -0.0047   0.0070   0.00   34.3
2019/05/08 04:11:09.000  -4387871.9602    733419.3603  -4555186.1251   1  19   0.0084   0.0046   0.0091  -0.0047  -0.0047   0.0070   0.00   24.5
2019/05/08 04:11:10.000  -4387871.9627    733419.3610  -4555186.1257   1  19   0.0084   0.0046   0.0091  -0.0047  -0.0047   0.0070   0.00   21.3
2019/05/08 04:11:11.000  -4387871.9603    733419.3603  -4555186.1237   1  19   0.0084   0.0046   0.0091  -0.0047  -0.0047   0.0070   0.00   28.4
2019/05/08 04:11:12.000  -4387871.9587    733419.3594  -4555186.1236   1  19   0.0084   0.0046   0.0091  -0.0047  -0.0047   0.0070   0.00   27.2
2019/05/08 04:11:13.000  -4387871.9611    733419.3602  -4555186.1263   1  19   0.0084   0.0046   0.0091  -0.0047  -0.0047   0.0070   0.00   30.3
2019/05/08 04:11:14.000  -4387871.9611    733419.3601  -4555186.1268   1  19   0.0084   0.0046   0.0091  -0.0047  -0.0047   0.0070   0.00   24.6
2019/05/08 04:11:15.000  -4387871.9602    733419.3590  -4555186.1235   1  19   0.0084   0.0046   0.0091  -0.0047  -0.0047   0.0070   0.00   27.2
2019/05/08 04:11:16.000  -4387871.9630    733419.3621  -4555186.1274   1  19   0.0084   0.0046   0.0091  -0.0047  -0.0047   0.0070   0.00   31.6
2019/05/08 04:11:17.000  -4387871.9638    733419.3620  -4555186.1285   1  19   0.0084   0.0046   0.0091  -0.0047  -0.0047   0.0070   0.00   46.2
2019/05/08 04:11:18.000  -4387871.9617    733419.3602  -4555186.1271   1  19   0.0084   0.0046   0.0091  -0.0047  -0.0047   0.0070   0.00   36.8
2019/05/08 04:11:19.000  -4387871.9641    733419.3618  -4555186.1268   1  19   0.0084   0.0046   0.0091  -0.0047  -0.0047   0.0070   0.00   44.2
2019/05/08 04:11:20.000  -4387871.9609    733419.3605  -4555186.1264   1  19   0.0084   0.0046   0.0091  -0.0047  -0.0047   0.0070   0.00   54.7
2019/05/08 04:11:21.000  -4387871.9609    733419.3609  -4555186.1281   1  19   0.0084   0.0046   0.0091  -0.0047  -0.0047   0.0070   0.00   40.7
2019/05/08 04:11:22.000  -4387871.9635    733419.3618  -4555186.1291   1  19   0.0084   0.0046   0.0091  -0.0047  -0.0047   0.0070   0.00   18.8
2019/05/08 04:11:23.000  -4387871.9614    733419.3622  -4555186.1270   1  19   0.0084   0.0046   0.0091  -0.0047  -0.0047   0.0070   0.00   16.5
2019/05/08 04:11:24.000  -4387871.9623    733419.3607  -4555186.1278   1  19   0.0084   0.0046   0.0091  -0.0047  -0.0047   0.0070   0.00   12.6
2019/05/08 04:11:25.000  -4387871.9601    733419.3604  -4555186.1256   1  19   0.0084   0.0046   0.0091  -0.0047  -0.0047   0.0070   0.00   15.2
2019/05/08 04:11:26.000  -4387871.9618    733419.3607  -4555186.1255   1  19   0.0084   0.0046   0.0091  -0.0047  -0.0047   0.0070   0.00   14.8
2019/05/08 04:11:27.000  -4387871.9624    733419.3615  -4555186.1266   1  19   0.0084   0.0046   0.0091  -0.0047  -0.0047   0.0070   0.00   14.7
2019/05/08 04:11:28.000  -4387871.9600    733419.3595  -4555186.1242   1  19   0.0084   0.0046   0.0091  -0.0047  -0.0047   0.0070   0.00   14.2
2019/05/08 04:11:29.000  -4387871.9591    733419.3598  -4555186.1253   1  19   0.0084   0.0046   0.0091  -0.0047  -0.0047   0.0070   0.00   11.4
2019/05/08 04:11:30.000  -4387871.9600    733419.3604  -4555186.1257   1  19   0.0084   0.0046   0.0091  -0.0047  -0.0047   0.0070   0.00   11.9
2019/05/08 04:11:31.000  -4387871.9596    733419.3615  -4555186.1286   1  19   0.0084   0.0046   0.0091  -0.0047  -0.0047   0.0070   0.00    9.2
2019/05/08 04:11:32.000  -4387871.9585    733419.3594  -4555186.1256   1  19   0.0084   0.0046   0.0091  -0.0047  -0.0047   0.0070   0.00    7.6
2019/05/08 04:11:33.000  -4387871.9590    733419.3608  -4555186.1276   1  19   0.0084   0.0046   0.0091  -0.0047  -0.0047   0.0070   0.00    8.4
2019/05/08 04:11:34.000  -4387871.9594    733419.3603  -4555186.1258   1  19   0.0084   0.0046   0.0091  -0.0047  -0.0047   0.0070   0.00    8.6
2019/05/08 04:11:35.000  -4387871.9612    733419.3610  -4555186.1267   1  19   0.0084   0.0046   0.0091  -0.0047  -0.0047   0.0070   0.00   10.3
2019/05/08 04:11:36.000  -4387871.9613    733419.3615  -4555186.1271   1  19   0.0084   0.0046   0.0091  -0.0047  -0.0047   0.0070   0.00   20.7
2019/05/08 04:11:37.000  -4387871.9615    733419.3617  -4555186.1276   1  19   0.0084   0.0046   0.0091  -0.0047  -0.0047   0.0070   0.00   24.9
2019/05/08 04:11:38.000  -4387871.9586    733419.3607  -4555186.1259   1  19   0.0084   0.0046   0.0091  -0.0047  -0.0047   0.0070   0.00   22.1
2019/05/08 04:11:39.000  -4387871.9602    733419.3602  -4555186.1252   1  19   0.0084   0.0046   0.0091  -0.0047  -0.0047   0.0070   0.00   48.9
2019/05/08 04:11:40.000  -4387871.9611    733419.3607  -4555186.1271   1  19   0.0084   0.0046   0.0091  -0.0047  -0.0047   0.0070   0.00   56.8
2019/05/08 04:11:41.000  -4387871.9570    733419.3595  -4555186.1247   1  19   0.0084   0.0046   0.0091  -0.0047  -0.0047   0.0070   0.00   46.1
2019/05/08 04:11:42.000  -4387871.9610    733419.3610  -4555186.1267   1  19   0.0084   0.0046   0.0091  -0.0047  -0.0047   0.0070   0.00   65.3
2019/05/08 04:11:43.000  -4387871.9582    733419.3605  -4555186.1259   1  19   0.0084   0.0046   0.0091  -0.0047  -0.0047   0.0070   0.00   37.6
2019/05/08 04:11:44.000  -4387871.9611    733419.3609  -4555186.1254   1  19   0.0084   0.0046   0.0091  -0.0047  -0.0047   0.0070   0.00   33.5
2019/05/08 04:11:45.000  -4387871.9595    733419.3597  -4555186.1260   1  19   0.0084   0.0046   0.0091  -0.0047  -0.0047   0.0070   0.00   24.5
2019/05/08 04:11:46.000  -4387871.9592    733419.3603  -4555186.1267   1  19   0.0084   0.0046   0.0091  -0.0047  -0.0047   0.0070   0.00   31.7
2019/05/08 04:11:47.000  -4387871.9605    733419.3597  -4555186.1232   1  19   0.0084   0.0046   0.0091  -0.0047  -0.0047   0.0070   0.00   20.7
2019/05/08 04:11:48.000  -4387871.9604    733419.3607  -4555186.1252   1  19   0.0084   0.0046   0.0091  -0.0047  -0.0047   0.0070   0.00   20.9
2019/05/08 04:11:49.000  -4387871.9594    733419.3601  -4555186.1264   1  19   0.0084   0.0046   0.0091  -0.0047  -0.0047   0.0070   0.00   16.1
2019/05/08 04:11:50.000  -4387871.9628    733419.3618  -4555186.1278   1  19   0.0084   0.0046   0.0091  -0.0047  -0.0047   0.0070   0.00   17.4
2019/05/08 04:11:51.000  -4387871.9599    733419.3595  -4555186.1254   1  19   0.0084   0.0046   0.0091  -0.0047  -0.0047   0.0070   0.00   25.7
2019/05/08 04:11:52.000  -4387871.9592    733419.3602  -4555186.1270   1  19   0.0084   0.0046   0.0091  -0.0047  -0.0047   0.0070   0.00   32.6
2019/05/08 04:11:53.000  -4387871.9613    733419.3595  -4555186.1264   1  19   0.0084   0.0046   0.0091  -0.0047  -0.0047   0.0070   0.00   38.1
2019/05/08 04:11:54.000  -4387871.9605    733419.3595  -4555186.1249   1  19   0.0084   0.0046   0.0091  -0.0047  -0.0047   0.0070   0.00   29.9
2019/05/08 04:11:55.000  -4387871.9593    733419.3595  -4555186.1281   1  19   0.0084   0.0046   0.0091  -0.0047  -0.0047   0.0070   0.00   45.2
2019/05/08 04:11:56.000  -4387871.9608    733419.3587  -4555186.1266   1  19   0.0084   0.0046   0.0091  -0.0047  -0.0047   0.0070   0.00   40.8
2019/05/08 04:11:57.000  -4387871.9583    733419.3588  -4555186.1253   1  19   0.0084   0.0046   0.0091  -0.0047  -0.0047   0.0070   0.00   52.3
2019/05/08 04:11:58.000  -4387871.9571    733419.3579  -4555186.1254   1  19   0.0084   0.0046   0.0091  -0.0047  -0.0047   0.0070   0.00   51.9
2019/05/08 04:11:59.000  -4387871.9601    733419.3598  -4555186.1272   1  19   0.0084   0.0046   0.0091  -0.0047  -0.0047   0.0070   0.00   37.9
2019/05/08 04:12:00.000  -4387871.9604    733419.3605  -4555186.1271   1  19   0.0084   0.0046   0.0091  -0.0047  -0.0047   0.0070   0.00   39.5
2019/05/08 04:12:01.000  -4387871.9591    733419.3581  -4555186.1280   1  19   0.0084   0.0046   0.0091  -0.0047  -0.0047   0.0070   0.00   43.6
2019/05/08 04:12:02.000  -4387871.9598    733419.3590  -4555186.1239   1  19   0.0084   0.0046   0.0091  -0.0047  -0.0047   0.0070   0.00   37.5
2019/05/08 04:12:03.000  -4387871.9616    733419.3594  -4555186.1280   1  19   0.0084   0.0046   0.0091  -0.0047  -0.0047   0.0070   0.00   39.5
2019/05/08 04:12:04.000  -4387871.9591    733419.3590  -4555186.1258   1  19   0.0084   0.0046   0.0091  -0.0047  -0.0047   0.0070   0.00   46.5
2019/05/08 04:12:05.000  -4387871.9589    733419.3588  -4555186.1256   1  19   0.0084   0.0046   0.0091  -0.0047  -0.0047   0.0070   0.00   51.3
2019/05/08 04:12:06.000  -4387871.9601    733419.3595  -4555186.1252   1  19   0.0084   0.0046   0.0091  -0.0047  -0.0047   0.0070   0.00   25.9
2019/05/08 04:12:07.000  -4387871.9578    733419.3592  -4555186.1255   1  19   0.0084   0.0046   0.0091  -0.0047  -0.0047   0.0070   0.00   23.5
2019/05/08 04:12:08.000  -4387871.9595    733419.3601  -4555186.1267   1  19   0.0084   0.0046   0.0091  -0.0047  -0.0047   0.0070   0.00   26.4
2019/05/08 04:12:09.000  -4387871.9579    733419.3586  -4555186.1228   1  19   0.0084   0.0046   0.0091  -0.0047  -0.0047   0.0070   0.00   27.1
2019/05/08 04:12:10.000  -4387871.9602    733419.3603  -4555186.1285   1  19   0.0084   0.0046   0.0091  -0.0047  -0.0047   0.0070   0.00   22.7
2019/05/08 04:12:11.000  -4387871.9583    733419.3588  -4555186.1266   1  19   0.0084   0.0046   0.0091  -0.0047  -0.0047   0.0070   0.00   24.3
2019/05/08 04:12:12.000  -4387871.9578    733419.3604  -4555186.1248   1  19   0.0084   0.0046   0.0091  -0.0047  -0.0047   0.0070   0.00   17.4
2019/05/08 04:12:13.000  -4387871.9615    733419.3614  -4555186.1294   1  19   0.0084   0.0046   0.0091  -0.0047  -0.0047   0.0070   0.00   17.3
2019/05/08 04:12:14.000  -4387871.9575    733419.3588  -4555186.1241   1  19   0.0084   0.0046   0.0091  -0.0047  -0.0047   0.0070   0.00   22.9
2019/05/08 04:12:15.000  -4387871.9579    733419.3595  -4555186.1262   1  19   0.0084   0.0046   0.0091  -0.0047  -0.0047   0.0070   0.00   28.0
2019/05/08 04:12:16.000  -4387871.9607    733419.3607  -4555186.1275   1  19   0.0084   0.0046   0.0091  -0.0047  -0.0047   0.0070   0.00   24.7
2019/05/08 04:12:17.000  -4387871.9607    733419.3605  -4555186.1302   1  19   0.0086   0.0046   0.0093  -0.0048  -0.0047   0.0071   1.00   21.7
2019/05/08 04:12:18.000  -4387871.9561    733419.3595  -4555186.1241   1  19   0.0084   0.0046   0.0091  -0.0047  -0.0047   0.0070   0.00   26.5
2019/05/08 04:12:19.000  -4387871.9585    733419.3601  -4555186.1268   1  19   0.0084   0.0046   0.0091  -0.0047  -0.0047   0.0070   0.00   29.4
2019/05/08 04:12:20.000  -4387871.9584    733419.3601  -4555186.1267   1  19   0.0086   0.0046   0.0093  -0.0048  -0.0047   0.0071   1.00   22.0
2019/05/08 04:12:21.000  -4387871.9582    733419.3594  -4555186.1264   1  19   0.0084   0.0046   0.0091  -0.0047  -0.0047   0.0070   0.00   21.1
2019/05/08 04:12:22.000  -4387871.9593    733419.3601  -4555186.1260   1  19   0.0084   0.0046   0.0091  -0.0047  -0.0047   0.0070   0.00   22.1
2019/05/08 04:12:23.000  -4387871.9583    733419.3592  -4555186.1272   1  19   0.0084   0.0046   0.0091  -0.0047  -0.0047   0.0070   0.00   20.6
2019/05/08 04:12:24.000  -4387871.9581    733419.3596  -4555186.1261   1  19   0.0086   0.0046   0.0093  -0.0048  -0.0047   0.0071   1.00   22.3
2019/05/08 04:12:25.000  -4387871.9583    733419.3604  -4555186.1251   1  19   0.0084   0.0046   0.0091  -0.0047  -0.0047   0.0070   0.00   29.9
2019/05/08 04:12:26.000  -4387871.9589    733419.3590  -4555186.1264   1  19   0.0084   0.0046   0.0091  -0.0047  -0.0047   0.0070   0.00   23.5
2019/05/08 04:12:27.000  -4387871.9566    733419.3581  -4555186.1241   1  19   0.0084   0.0046   0.0091  -0.0047  -0.0047   0.0070   0.00   23.3
2019/05/08 04:12:28.000  -4387871.9584    733419.3595  -4555186.1263   1  19   0.0084   0.0046   0.0091  -0.0047  -0.0047   0.0070   0.00   24.6
2019/05/08 04:12:29.000  -4387871.9583    733419.3585  -4555186.1258   1  19   0.0084   0.0046   0.0091  -0.0047  -0.0047   0.0070   0.00   19.1
2019/05/08 04:12:30.000  -4387871.9598    733419.3610  -4555186.1271   1  19   0.0086   0.0046   0.0093  -0.0048  -0.0047   0.0071   1.00   22.2
2019/05/08 04:12:31.000  -4387871.9601    733419.3624  -4555186.1282   1  19   0.0090   0.0048   0.0096  -0.0050  -0.0049   0.0074   2.00   19.7
2019/05/08 04:12:32.000  -4387871.9603    733419.3617  -4555186.1291   1  19   0.0096   0.0051   0.0102  -0.0053  -0.0051   0.0078   3.00   17.8
2019/05/08 04:12:33.000  -4387871.9614    733419.3618  -4555186.1286   1  19   0.0103   0.0055   0.0110  -0.0056  -0.0054   0.0084   4.00   17.0
2019/05/08 04:12:34.000  -4387871.9619    733419.3628  -4555186.1286   1  19   0.0111   0.0059   0.0119  -0.0060  -0.0057   0.0090   5.00   13.8
2019/05/08 04:12:35.000  -4387871.9602    733419.3599  -4555186.1260   1  20   0.0082   0.0046   0.0091  -0.0047  -0.0047   0.0069   0.00   15.9
2019/05/08 04:12:36.000  -4387871.9575    733419.3586  -4555186.1240   1  20   0.0082   0.0046   0.0091  -0.0047  -0.0047   0.0069   0.00   12.0
2019/05/08 04:12:37.000  -4387871.9583    733419.3598  -4555186.1260   1  20   0.0083   0.0046   0.0092  -0.0047  -0.0047   0.0070   1.00   10.9
2019/05/08 04:12:38.000  -4387871.9607    733419.3608  -4555186.1275   1  20   0.0087   0.0048   0.0096  -0.0049  -0.0049   0.0072   2.00    9.3
2019/05/08 04:12:39.000  -4387871.9600    733419.3607  -4555186.1279   1  20   0.0092   0.0051   0.0102  -0.0052  -0.0051   0.0077   3.00    9.5
2019/05/08 04:12:40.000  -4387871.9598    733419.3601  -4555186.1254   1  20   0.0099   0.0055   0.0109  -0.0055  -0.0053   0.0082   4.00    9.5
2019/05/08 04:12:41.000  -4387871.9603    733419.3605  -4555186.1276   1  20   0.0082   0.0046   0.0091  -0.0047  -0.0047   0.0069   0.00   13.2
2019/05/08 04:12:42.000  -4387871.9613    733419.3614  -4555186.1290   1  20   0.0082   0.0046   0.0091  -0.0047  -0.0047   0.0069   0.00   17.3
2019/05/08 04:12:43.000  -4387871.9622    733419.3611  -4555186.1289   1  20   0.0082   0.0046   0.0091  -0.0047  -0.0047   0.0069   0.00   14.4
2019/05/08 04:12:44.000  -4387871.9626    733419.3613  -4555186.1301   1  20   0.0083   0.0046   0.0092  -0.0047  -0.0047   0.0070   1.00   13.3
2019/05/08 04:12:45.000  -4387871.9606    733419.3613  -4555186.1277   1  20   0.0087   0.0048   0.0096  -0.0049  -0.0049   0.0072   2.00   10.8
2019/05/08 04:12:46.000  -4387871.9603    733419.3601  -4555186.1286   1  20   0.0082   0.0046   0.0091  -0.0047  -0.0047   0.0069   0.00    9.8
2019/05/08 04:12:47.000  -4387871.9615    733419.3608  -4555186.1287   1  20   0.0083   0.0046   0.0092  -0.0047  -0.0047   0.0070   1.00    9.5
2019/05/08 04:12:48.000  -4387871.9598    733419.3604  -4555186.1289   1  20   0.0087   0.0048   0.0096  -0.0049  -0.0049   0.0072   2.00    9.3
2019/05/08 04:12:49.000  -4387871.9613    733419.3611  -4555186.1310   1  20   0.0092   0.0051   0.0102  -0.0052  -0.0051   0.0077   3.00   10.1
2019/05/08 04:12:50.000  -4387871.9627    733419.3609  -4555186.1305   1  20   0.0082   0.0046   0.0091  -0.0047  -0.0047   0.0069   0.00   23.1
2019/05/08 04:12:51.000  -4387871.9650    733419.3607  -4555186.1312   1  20   0.0083   0.0046   0.0092  -0.0047  -0.0047   0.0070   1.00   12.8
2019/05/08 04:12:52.000  -4387871.9634    733419.3613  -4555186.1312   1  20   0.0087   0.0048   0.0096  -0.0049  -0.0049   0.0072   2.00   15.2
2019/05/08 04:12:53.000  -4387871.9636    733419.3618  -4555186.1345   1  20   0.0092   0.0051   0.0102  -0.0052  -0.0051   0.0077   3.00   16.8
2019/05/08 04:12:54.000  -4387871.9649    733419.3621  -4555186.1338   1  20   0.0099   0.0055   0.0109  -0.0055  -0.0053   0.0082   4.00   21.1
2019/05/08 04:12:55.000  -4387871.9605    733419.3596  -4555186.1288   1  20   0.0082   0.0046   0.0091  -0.0047  -0.0047   0.0069   0.00   17.0
2019/05/08 04:12:56.000  -4387871.9617    733419.3597  -4555186.1276   1  20   0.0082   0.0046   0.0091  -0.0047  -0.0047   0.0069   0.00   13.0
2019/05/08 04:12:57.000  -4387871.9610    733419.3589  -4555186.1262   1  20   0.0082   0.0046   0.0091  -0.0047  -0.0047   0.0069   0.00   12.6
2019/05/08 04:12:58.000  -4387871.9625    733419.3591  -4555186.1262   1  20   0.0082   0.0046   0.0091  -0.0047  -0.0047   0.0069   0.00    9.8
2019/05/08 04:12:59.000  -4387871.9611    733419.3594  -4555186.1264   1  20   0.0082   0.0046   0.0091  -0.0047  -0.0047   0.0069   0.00   12.1
2019/05/08 04:13:00.000  -4387871.9606    733419.3599  -4555186.1233   1  20   0.0083   0.0046   0.0092  -0.0047  -0.0047   0.0070   1.00    9.6
2019/05/08 04:13:01.000  -4387871.9645    733419.3606  -4555186.1298   1  20   0.0082   0.0046   0.0091  -0.0047  -0.0047   0.0069   0.00    6.8
2019/05/08 04:13:02.000  -4387871.9630    733419.3604  -4555186.1286   1  20   0.0082   0.0046   0.0091  -0.0047  -0.0047   0.0069   0.00    6.4
2019/05/08 04:13:03.000  -4387871.9618    733419.3605  -4555186.1283   1  20   0.0083   0.0046   0.0092  -0.0047  -0.0047   0.0070   1.00    7.1
2019/05/08 04:13:04.000  -4387871.9630    733419.3593  -4555186.1281   1  20   0.0082   0.0046   0.0091  -0.0047  -0.0047   0.0069   0.00    7.6
2019/05/08 04:13:05.000  -4387871.9644    733419.3603  -4555186.1270   1  20   0.0082   0.0046   0.0091  -0.0047  -0.0047   0.0069   0.00    8.2
2019/05/08 04:13:06.000  -4387871.9653    733419.3616  -4555186.1295   1  20   0.0083   0.0046   0.0092  -0.0047  -0.0047   0.0070   1.00    9.4
2019/05/08 04:13:07.000  -4387871.9631    733419.3604  -4555186.1282   1  20   0.0082   0.0046   0.0091  -0.0047  -0.0047   0.0069   0.00   12.5
2019/05/08 04:13:08.000  -4387871.9628    733419.3611  -4555186.1278   1  20   0.0082   0.0046   0.0091  -0.0047  -0.0047   0.0069   0.00   19.7
2019/05/08 04:13:09.000  -4387871.9632    733419.3610  -4555186.1263   1  20   0.0083   0.0046   0.0092  -0.0047  -0.0047   0.0070   1.00   13.7
2019/05/08 04:13:10.000  -4387871.9626    733419.3599  -4555186.1274   1  20   0.0082   0.0046   0.0091  -0.0047  -0.0047   0.0069   0.00   13.0
2019/05/08 04:13:11.000  -4387871.9633    733419.3596  -4555186.1279   1  20   0.0082   0.0046   0.0091  -0.0047  -0.0047   0.0069   0.00    8.0
2019/05/08 04:13:12.000  -4387871.9647    733419.3603  -4555186.1285   1  20   0.0083   0.0046   0.0092  -0.0047  -0.0047   0.0070   1.00    7.6
2019/05/08 04:13:13.000  -4387871.9618    733419.3597  -4555186.1262   1  20   0.0082   0.0046   0.0091  -0.0047  -0.0047   0.0069   0.00    7.3
2019/05/08 04:13:14.000  -4387871.9640    733419.3596  -4555186.1311   1  20   0.0082   0.0046   0.0091  -0.0047  -0.0047   0.0069   0.00    6.2
2019/05/08 04:13:15.000  -4387871.9628    733419.3594  -4555186.1300   1  20   0.0083   0.0046   0.0092  -0.0047  -0.0047   0.0070   1.00    5.6
2019/05/08 04:13:16.000  -4387871.9630    733419.3587  -4555186.1261   1  20   0.0082   0.0046   0.0091  -0.0047  -0.0047   0.0069   0.00    5.1
2019/05/08 04:13:17.000  -4387871.9636    733419.3590  -4555186.1260   1  20   0.0083   0.0046   0.0092  -0.0047  -0.0047   0.0070   1.00    5.2
2019/05/08 04:13:18.000  -4387871.9598    733419.3576  -4555186.1226   1  20   0.0082   0.0046   0.0091  -0.0047  -0.0047   0.0069   0.00    4.5
2019/05/08 04:13:19.000  -4387871.9603    733419.3587  -4555186.1242   1  20   0.0082   0.0046   0.0091  -0.0047  -0.0047   0.0069   0.00    4.9
2019/05/08 04:13:20.000  -4387871.9602    733419.3574  -4555186.1255   1  20   0.0082   0.0046   0.0091  -0.0047  -0.0047   0.0069   0.00    4.5
2019/05/08 04:13:21.000  -4387871.9598    733419.3585  -4555186.1238   1  20   0.0082   0.0046   0.0091  -0.0047  -0.0047   0.0069   0.00    5.8
2019/05/08 04:13:22.000  -4387871.9621    733419.3593  -4555186.1270   1  20   0.0082   0.0046   0.0091  -0.0047  -0.0047   0.0069   0.00    7.3
2019/05/08 04:13:23.000  -4387871.9620    733419.3606  -4555186.1256   1  20   0.0083   0.0046   0.0092  -0.0047  -0.0047   0.0070   1.00    8.1
2019/05/08 04:13:24.000  -4387871.9648    733419.3610  -4555186.1278   1  20   0.0087   0.0048   0.0096  -0.0049  -0.0049   0.0072   2.00    7.8
2019/05/08 04:13:25.000  -4387871.9657    733419.3615  -4555186.1285   1  20   0.0092   0.0051   0.0102  -0.0052  -0.0051   0.0077   3.00    6.8
2019/05/08 04:13:26.000  -4387871.9617    733419.3601  -4555186.1268   1  20   0.0082   0.0046   0.0091  -0.0047  -0.0047   0.0069   0.00    6.6
2019/05/08 04:13:27.000  -4387871.9627    733419.3612  -4555186.1269   1  20   0.0083   0.0046   0.0092  -0.0047  -0.0047   0.0070   1.00    5.5
2019/05/08 04:13:28.000  -4387871.9633    733419.3621  -4555186.1257   1  20   0.0087   0.0048   0.0096  -0.0049  -0.0049   0.0072   2.00    5.4
2019/05/08 04:13:29.000  -4387871.9654    733419.3632  -4555186.1287   1  20   0.0092   0.0051   0.0102  -0.0052  -0.0051   0.0077   3.00    4.5
2019/05/08 04:13:30.000  -4387871.9659    733419.3635  -4555186.1284   1  20   0.0099   0.0055   0.0109  -0.0055  -0.0054   0.0082   4.00    3.6
2019/05/08 04:13:31.000  -4387871.9656    733419.3643  -4555186.1296   1  20   0.0107   0.0059   0.0118  -0.0059  -0.0057   0.0088   5.00    2.9
2019/05/08 04:13:32.000  -4387871.9629    733419.3605  -4555186.1267   1  20   0.0082   0.0046   0.0091  -0.0047  -0.0047   0.0069   0.00    4.1
2019/05/08 04:13:33.000  -4387871.9627    733419.3610  -4555186.1266   1  20   0.0083   0.0046   0.0092  -0.0047  -0.0047   0.0070   1.00    4.0
2019/05/08 04:13:34.000  -4387871.9628    733419.3607  -4555186.1281   1  20   0.0082   0.0046   0.0091  -0.0047  -0.0047   0.0069   0.00    5.3
2019/05/08 04:13:35.000  -4387871.9619    733419.3596  -4555186.1272   1  20   0.0082   0.0046   0.0091  -0.0047  -0.0047   0.0069   0.00    6.2
2019/05/08 04:13:36.000  -4387871.9631    733419.3604  -4555186.1273   1  20   0.0083   0.0046   0.0092  -0.0047  -0.0047   0.0070   1.00    5.5
2019/05/08 04:13:37.000  -4387871.9623    733419.3602  -4555186.1277   1  20   0.0082   0.0046   0.0091  -0.0047  -0.0047   0.0069   0.00   10.5
2019/05/08 04:13:38.000  -4387871.9619    733419.3596  -4555186.1239   1  20   0.0083   0.0046   0.0092  -0.0047  -0.0047   0.0070   1.00    8.6
2019/05/08 04:13:39.000  -4387871.9605    733419.3587  -4555186.1255   1  20   0.0082   0.0046   0.0091  -0.0047  -0.0047   0.0069   0.00   10.8
2019/05/08 04:13:40.000  -4387871.9631    733419.3602  -4555186.1281   1  20   0.0082   0.0046   0.0091  -0.0047  -0.0047   0.0069   0.00    9.9
2019/05/08 04:13:41.000  -4387871.9606    733419.3582  -4555186.1261   1  20   0.0082   0.0046   0.0091  -0.0047  -0.0047   0.0069   0.00   15.3
2019/05/08 04:13:42.000  -4387871.9618    733419.3581  -4555186.1267   1  20   0.0083   0.0046   0.0092  -0.0047  -0.0047   0.0070   1.00   14.3
2019/05/08 04:13:43.000  -4387871.9618    733419.3601  -4555186.1262   1  20   0.0082   0.0046   0.0091  -0.0047  -0.0047   0.0069   0.00   13.6
2019/05/08 04:13:44.000  -4387871.9608    733419.3583  -4555186.1264   1  20   0.0082   0.0046   0.0091  -0.0047  -0.0047   0.0069   0.00   15.1
2019/05/08 04:13:45.000  -4387871.9623    733419.3581  -4555186.1244   1  20   0.0082   0.0046   0.0091  -0.0047  -0.0047   0.0069   0.00   16.3
2019/05/08 04:13:46.000  -4387871.9618    733419.3575  -4555186.1242   1  20   0.0083   0.0046   0.0092  -0.0047  -0.0047   0.0070   1.00   11.5
2019/05/08 04:13:47.000  -4387871.9603    733419.3579  -4555186.1252   1  20   0.0082   0.0046   0.0091  -0.0047  -0.0047   0.0069   0.00   14.1
2019/05/08 04:13:48.000  -4387871.9629    733419.3593  -4555186.1248   1  20   0.0082   0.0046   0.0091  -0.0047  -0.0047   0.0069   0.00   17.4
2019/05/08 04:13:49.000  -4387871.9653    733419.3596  -4555186.1284   1  20   0.0083   0.0046   0.0092  -0.0047  -0.0047   0.0070   1.00   18.2
2019/05/08 04:13:50.000  -4387871.9650    733419.3589  -4555186.1254   1  20   0.0087   0.0048   0.0096  -0.0049  -0.0049   0.0072   2.00   11.7
2019/05/08 04:13:51.000  -4387871.9655    733419.3603  -4555186.1283   1  20   0.0082   0.0046   0.0091  -0.0047  -0.0047   0.0069   0.00   11.5
2019/05/08 04:13:52.000  -4387871.9628    733419.3592  -4555186.1252   1  20   0.0082   0.0046   0.0091  -0.0047  -0.0047   0.0069   0.00    8.7
2019/05/08 04:13:53.000  -4387871.9634    733419.3594  -4555186.1264   1  20   0.0082   0.0046   0.0091  -0.0047  -0.0047   0.0069   0.00    7.9
2019/05/08 04:13:54.000  -4387871.9626    733419.3590  -4555186.1269   1  20   0.0082   0.0046   0.0091  -0.0047  -0.0047   0.0069   0.00    6.1
2019/05/08 04:13:55.000  -4387871.9628    733419.3600  -4555186.1244   1  20   0.0082   0.0046   0.0091  -0.0047  -0.0047   0.0069   0.00    6.9
2019/05/08 04:13:56.000  -4387871.9627    733419.3591  -4555186.1272   1  20   0.0082   0.0046   0.0091  -0.0047  -0.0047   0.0069   0.00    6.2
2019/05/08 04:13:57.000  -4387871.9616    733419.3592  -4555186.1278   1  20   0.0083   0.0046   0.0093  -0.0047  -0.0047   0.0070   1.00    6.2
2019/05/08 04:13:58.000  -4387871.9607    733419.3573  -4555186.1271   1  20   0.0087   0.0048   0.0096  -0.0049  -0.0049   0.0072   2.00    6.8
2019/05/08 04:13:59.000  -4387871.9620    733419.3589  -4555186.1296   1  20   0.0092   0.0051   0.0102  -0.0052  -0.0051   0.0077   3.00    7.9
2019/05/08 04:14:00.000  -4387871.9603    733419.3580  -4555186.1283   1  20   0.0099   0.0055   0.0109  -0.0055  -0.0054   0.0082   4.00    9.8
2019/05/08 04:14:01.000  -4387871.9587    733419.3569  -4555186.1259   1  20   0.0107   0.0059   0.0118  -0.0059  -0.0057   0.0088   5.00    8.7
2019/05/08 04:14:02.000  -4387871.9590    733419.3556  -4555186.1273   1  20   0.0115   0.0064   0.0127  -0.0063  -0.0061   0.0095   6.00    7.6
2019/05/08 04:14:03.000  -4387871.9589    733419.3570  -4555186.1281   1  20   0.0124   0.0069   0.0138  -0.0067  -0.0065   0.0102   7.00    6.8
2019/05/08 04:14:04.000  -4387871.9569    733419.3561  -4555186.1277   1  20   0.0133   0.0074   0.0148  -0.0071  -0.0069   0.0110   8.00    7.0
2019/05/08 04:14:05.000  -4387871.9574    733419.3563  -4555186.1286   1  20   0.0142   0.0079   0.0160  -0.0076  -0.0073   0.0118   9.00    6.7
2019/05/08 04:14:06.000  -4387871.9563    733419.3557  -4555186.1266   1  20   0.0152   0.0085   0.0171  -0.0081  -0.0078   0.0126  10.00    6.7
2019/05/08 04:14:07.000  -4387871.9540    733419.3556  -4555186.1249   1  20   0.0162   0.0090   0.0183  -0.0086  -0.0082   0.0134  11.00    8.1
2019/05/08 04:14:08.000  -4387871.9546    733419.3553  -4555186.1266   1  20   0.0171   0.0096   0.0195  -0.0090  -0.0087   0.0142  12.00    6.5
2019/05/08 04:14:09.000  -4387871.9531    733419.3543  -4555186.1251   1  20   0.0181   0.0102   0.0207  -0.0095  -0.0092   0.0151  13.00    5.4
2019/05/08 04:14:10.000  -4387871.9533    733419.3534  -4555186.1234   1  20   0.0191   0.0108   0.0220  -0.0100  -0.0097   0.0160  14.00    4.1
2019/05/08 04:14:11.000  -4387871.9512    733419.3523  -4555186.1196   1  20   0.0202   0.0114   0.0232  -0.0106  -0.0103   0.0168  15.00    3.5
2019/05/08 04:14:12.000  -4387871.9492    733419.3516  -4555186.1172   1  20   0.0212   0.0120   0.0245  -0.0111  -0.0108   0.0177  16.00    3.1
2019/05/08 04:14:13.000  -4387871.9470    733419.3511  -4555186.1138   1  20   0.0222   0.0126   0.0258  -0.0116  -0.0113   0.0186  17.00    2.2
2019/05/08 04:14:14.000  -4387871.9458    733419.3503  -4555186.1111   1  20   0.0232   0.0133   0.0271  -0.0121  -0.0119   0.0195  18.00    1.7
2019/05/08 04:14:15.000  -4387871.9460    733419.3492  -4555186.1112   1  20   0.0243   0.0139   0.0284  -0.0127  -0.0124   0.0204  19.00    1.5
2019/05/08 04:14:16.000  -4387871.9476    733419.3498  -4555186.1120   1  20   0.0253   0.0145   0.0297  -0.0132  -0.0129   0.0213  20.00    1.3
2019/05/08 04:14:17.000  -4387871.9442    733419.3494  -4555186.1102   1  20   0.0264   0.0152   0.0310  -0.0137  -0.0135   0.0223  21.00    1.2
2019/05/08 04:14:18.000  -4387871.9456    733419.3502  -4555186.1097   1  20   0.0275   0.0158   0.0323  -0.0143  -0.0141   0.0232  22.00    1.2
