% program   : RTKPOST ver.2.4.3
% inp file  : C:\Robert\Otago\Ryan Carter\Second test - 10 mins\receiver1.19o
% inp file  : C:\Robert\Otago\Ryan Carter\Second test - 10 mins\receiver2.19o
% inp file  : C:\Robert\Otago\Ryan Carter\Second test - 10 mins\receiver1nav.19p
% obs start : 2019/05/09 03:57:40.0 GPST (week2052 359860.0s)
% obs end   : 2019/05/09 04:07:36.0 GPST (week2052 360456.0s)
% pos mode  : kinematic
% freqs     : L1
% solution  : forward
% elev mask : 10.0 deg
% dynamics  : off
% tidecorr  : off
% ionos opt : off
% tropo opt : saastamoinen
% ephemeris : broadcast
% navi sys  : gps galileo qzss
% amb res   : instantaneous
% val thres : 1.0
% antenna1  :                       ( 0.0000  0.0000  0.0000)
% antenna2  :                       ( 0.0000  0.0000  0.0000)
% ref pos   : -4387871.6279    733419.1227  -4555184.6445
%
% (x/y/z-ecef=WGS84,Q=1:fix,2:float,3:sbas,4:dgps,5:single,6:ppp,ns=# of satellites)
%  GPST                      x-ecef(m)      y-ecef(m)      z-ecef(m)   Q  ns   sdx(m)   sdy(m)   sdz(m)  sdxy(m)  sdyz(m)  sdzx(m) age(s)  ratio
2019/05/09 03:57:40.000  -4387873.7506    733418.3757  -4555182.6743   1  17   0.0080   0.0044   0.0087  -0.0039  -0.0041   0.0066   0.00   18.3
2019/05/09 03:57:41.000  -4387873.7512    733418.3777  -4555182.6751   1  17   0.0080   0.0044   0.0087  -0.0039  -0.0041   0.0066   0.00   11.7
2019/05/09 03:57:42.000  -4387873.7505    733418.3776  -4555182.6747   1  17   0.0080   0.0044   0.0087  -0.0039  -0.0041   0.0066   0.00   13.1
2019/05/09 03:57:43.000  -4387873.7532    733418.3783  -4555182.6773   1  17   0.0080   0.0044   0.0087  -0.0039  -0.0041   0.0066   0.00   12.6
2019/05/09 03:57:44.000  -4387873.7523    733418.3768  -4555182.6740   1  17   0.0080   0.0044   0.0087  -0.0039  -0.0041   0.0066   0.00    9.4
2019/05/09 03:57:45.000  -4387873.7517    733418.3770  -4555182.6746   1  17   0.0080   0.0044   0.0087  -0.0039  -0.0041   0.0066   0.00   10.4
2019/05/09 03:57:46.000  -4387873.7502    733418.3768  -4555182.6744   1  18   0.0080   0.0042   0.0087  -0.0039  -0.0041   0.0066   0.00    7.9
2019/05/09 03:57:47.000  -4387873.7529    733418.3782  -4555182.6756   1  18   0.0080   0.0042   0.0087  -0.0039  -0.0041   0.0066   0.00    9.6
2019/05/09 03:57:48.000  -4387873.7519    733418.3778  -4555182.6760   1  18   0.0080   0.0042   0.0087  -0.0039  -0.0041   0.0066   0.00   10.6
2019/05/09 03:57:49.000  -4387873.7540    733418.3772  -4555182.6777   1  18   0.0080   0.0042   0.0087  -0.0039  -0.0041   0.0066   0.00   14.2
2019/05/09 03:57:50.000  -4387873.7537    733418.3776  -4555182.6770   1  18   0.0080   0.0042   0.0087  -0.0039  -0.0041   0.0066   0.00   10.6
2019/05/09 03:57:51.000  -4387873.7519    733418.3785  -4555182.6750   1  18   0.0080   0.0042   0.0087  -0.0039  -0.0041   0.0066   0.00   13.9
2019/05/09 03:57:52.000  -4387873.7531    733418.3783  -4555182.6761   1  18   0.0080   0.0042   0.0087  -0.0039  -0.0041   0.0066   0.00   13.5
2019/05/09 03:57:53.000  -4387873.7542    733418.3783  -4555182.6779   1  18   0.0081   0.0043   0.0089  -0.0039  -0.0041   0.0067   1.00   15.2
2019/05/09 03:57:54.000  -4387873.7529    733418.3789  -4555182.6761   1  18   0.0080   0.0042   0.0087  -0.0039  -0.0041   0.0066   0.00   12.4
2019/05/09 03:57:55.000  -4387873.7531    733418.3785  -4555182.6733   1  18   0.0080   0.0042   0.0087  -0.0039  -0.0041   0.0066   0.00   23.6
2019/05/09 03:57:56.000  -4387873.7522    733418.3779  -4555182.6744   1  18   0.0080   0.0042   0.0087  -0.0039  -0.0041   0.0066   0.00   16.6
2019/05/09 03:57:57.000  -4387873.7530    733418.3778  -4555182.6756   1  18   0.0080   0.0042   0.0087  -0.0039  -0.0041   0.0066   0.00   20.2
2019/05/09 03:57:58.000  -4387873.7551    733418.3789  -4555182.6772   1  18   0.0080   0.0042   0.0087  -0.0039  -0.0041   0.0066   0.00   22.4
2019/05/09 03:57:59.000  -4387873.7528    733418.3779  -4555182.6744   1  18   0.0080   0.0042   0.0087  -0.0039  -0.0041   0.0066   0.00   25.6
2019/05/09 03:58:00.000  -4387873.7552    733418.3799  -4555182.6775   1  18   0.0080   0.0042   0.0087  -0.0039  -0.0041   0.0066   0.00   19.1
2019/05/09 03:58:01.000  -4387873.7554    733418.3775  -4555182.6750   1  18   0.0080   0.0042   0.0087  -0.0039  -0.0041   0.0066   0.00   20.6
2019/05/09 03:58:02.000  -4387873.7518    733418.3792  -4555182.6732   1  18   0.0080   0.0042   0.0087  -0.0039  -0.0041   0.0066   0.00   16.5
2019/05/09 03:58:03.000  -4387873.7523    733418.3781  -4555182.6744   1  18   0.0080   0.0042   0.0087  -0.0039  -0.0041   0.0066   0.00   13.4
2019/05/09 03:58:04.000  -4387873.7514    733418.3784  -4555182.6744   1  19   0.0079   0.0042   0.0087  -0.0040  -0.0041   0.0066   0.00   13.2
2019/05/09 03:58:05.000  -4387873.7523    733418.3779  -4555182.6739   1  19   0.0079   0.0042   0.0087  -0.0040  -0.0041   0.0066   0.00   14.4
2019/05/09 03:58:06.000  -4387873.7514    733418.3781  -4555182.6749   1  19   0.0079   0.0042   0.0087  -0.0040  -0.0041   0.0066   0.00   17.4
2019/05/09 03:58:07.000  -4387873.7509    733418.3776  -4555182.6723   1  19   0.0079   0.0042   0.0087  -0.0040  -0.0041   0.0066   0.00    7.9
2019/05/09 03:58:08.000  -4387873.7512    733418.3778  -4555182.6748   1  19   0.0079   0.0042   0.0087  -0.0040  -0.0041   0.0066   0.00    9.4
2019/05/09 03:58:09.000  -4387873.7522    733418.3767  -4555182.6732   1  19   0.0079   0.0042   0.0087  -0.0040  -0.0041   0.0066   0.00    9.6
2019/05/09 03:58:10.000  -4387873.7521    733418.3776  -4555182.6742   1  19   0.0079   0.0042   0.0087  -0.0040  -0.0041   0.0066   0.00    8.0
2019/05/09 03:58:11.000  -4387873.7503    733418.3779  -4555182.6739   1  19   0.0079   0.0042   0.0087  -0.0040  -0.0041   0.0066   0.00    6.8
2019/05/09 03:58:12.000  -4387873.7504    733418.3777  -4555182.6732   1  19   0.0079   0.0042   0.0087  -0.0040  -0.0041   0.0066   0.00    6.2
2019/05/09 03:58:13.000  -4387873.7516    733418.3786  -4555182.6747   1  19   0.0079   0.0042   0.0087  -0.0040  -0.0041   0.0066   0.00    6.3
2019/05/09 03:58:14.000  -4387873.7503    733418.3800  -4555182.6750   1  19   0.0079   0.0042   0.0087  -0.0040  -0.0041   0.0066   0.00    6.0
2019/05/09 03:58:15.000  -4387873.7520    733418.3780  -4555182.6754   1  19   0.0079   0.0042   0.0087  -0.0040  -0.0041   0.0066   0.00    6.8
2019/05/09 03:58:16.000  -4387873.7524    733418.3784  -4555182.6755   1  19   0.0079   0.0042   0.0087  -0.0040  -0.0041   0.0066   0.00    6.8
2019/05/09 03:58:17.000  -4387873.7527    733418.3779  -4555182.6773   1  19   0.0079   0.0042   0.0087  -0.0040  -0.0041   0.0066   0.00    7.7
2019/05/09 03:58:18.000  -4387873.7531    733418.3783  -4555182.6753   1  19   0.0079   0.0042   0.0087  -0.0040  -0.0041   0.0066   0.00    9.7
2019/05/09 03:58:19.000  -4387873.7525    733418.3787  -4555182.6754   1  19   0.0079   0.0042   0.0087  -0.0040  -0.0041   0.0066   0.00    9.3
2019/05/09 03:58:20.000  -4387873.7536    733418.3791  -4555182.6757   1  19   0.0079   0.0042   0.0087  -0.0040  -0.0041   0.0066   0.00   11.7
2019/05/09 03:58:21.000  -4387873.7546    733418.3797  -4555182.6779   1  19   0.0079   0.0042   0.0087  -0.0040  -0.0041   0.0066   0.00   14.0
2019/05/09 03:58:22.000  -4387873.7543    733418.3797  -4555182.6773   1  19   0.0079   0.0042   0.0087  -0.0040  -0.0041   0.0066   0.00   11.4
2019/05/09 03:58:23.000  -4387873.7545    733418.3791  -4555182.6794   1  19   0.0079   0.0042   0.0087  -0.0040  -0.0041   0.0066   0.00   12.4
2019/05/09 03:58:24.000  -4387873.7567    733418.3795  -4555182.6790   1  19   0.0079   0.0042   0.0087  -0.0040  -0.0041   0.0066   0.00   19.0
2019/05/09 03:58:25.000  -4387873.7558    733418.3788  -4555182.6789   1  19   0.0079   0.0042   0.0087  -0.0040  -0.0041   0.0066   0.00   14.4
2019/05/09 03:58:26.000  -4387873.7532    733418.3774  -4555182.6763   1  19   0.0079   0.0042   0.0087  -0.0040  -0.0041   0.0066   0.00   14.2
2019/05/09 03:58:27.000  -4387873.7535    733418.3782  -4555182.6757   1  19   0.0079   0.0042   0.0087  -0.0040  -0.0041   0.0066   0.00   12.7
2019/05/09 03:58:28.000  -4387873.7528    733418.3780  -4555182.6777   1  19   0.0079   0.0042   0.0087  -0.0040  -0.0041   0.0066   0.00   11.6
2019/05/09 03:58:29.000  -4387873.7525    733418.3789  -4555182.6769   1  19   0.0079   0.0042   0.0087  -0.0040  -0.0041   0.0066   0.00    9.3
2019/05/09 03:58:30.000  -4387873.7532    733418.3794  -4555182.6774   1  19   0.0079   0.0042   0.0087  -0.0040  -0.0041   0.0066   0.00    6.8
2019/05/09 03:58:31.000  -4387873.7538    733418.3787  -4555182.6783   1  19   0.0079   0.0042   0.0087  -0.0040  -0.0041   0.0066   0.00    8.1
2019/05/09 03:58:32.000  -4387873.7533    733418.3790  -4555182.6779   1  19   0.0079   0.0042   0.0087  -0.0040  -0.0041   0.0066   0.00   11.0
2019/05/09 03:58:33.000  -4387873.7544    733418.3780  -4555182.6776   1  19   0.0079   0.0042   0.0087  -0.0040  -0.0041   0.0066   0.00   11.1
2019/05/09 03:58:34.000  -4387873.7537    733418.3788  -4555182.6785   1  19   0.0079   0.0042   0.0087  -0.0040  -0.0041   0.0066   0.00   17.6
2019/05/09 03:58:35.000  -4387873.7530    733418.3782  -4555182.6769   1  19   0.0079   0.0042   0.0087  -0.0040  -0.0041   0.0066   0.00   14.4
2019/05/09 03:58:36.000  -4387873.7514    733418.3778  -4555182.6770   1  19   0.0079   0.0042   0.0087  -0.0040  -0.0041   0.0066   0.00    9.8
2019/05/09 03:58:37.000  -4387873.7525    733418.3790  -4555182.6764   1  19   0.0079   0.0042   0.0087  -0.0040  -0.0041   0.0066   0.00   11.7
2019/05/09 03:58:38.000  -4387873.7541    733418.3795  -4555182.6764   1  19   0.0079   0.0042   0.0087  -0.0040  -0.0041   0.0066   0.00   11.6
2019/05/09 03:58:39.000  -4387873.7530    733418.3783  -4555182.6765   1  19   0.0079   0.0042   0.0087  -0.0040  -0.0041   0.0066   0.00    9.5
2019/05/09 03:58:40.000  -4387873.7523    733418.3784  -4555182.6773   1  19   0.0079   0.0042   0.0087  -0.0040  -0.0041   0.0066   0.00    6.6
2019/05/09 03:58:41.000  -4387873.7508    733418.3783  -4555182.6745   1  19   0.0079   0.0042   0.0087  -0.0040  -0.0041   0.0066   0.00    6.3
2019/05/09 03:58:42.000  -4387873.7530    733418.3798  -4555182.6762   1  19   0.0079   0.0042   0.0087  -0.0040  -0.0041   0.0066   0.00    7.3
2019/05/09 03:58:43.000  -4387873.7517    733418.3775  -4555182.6736   1  19   0.0079   0.0042   0.0087  -0.0040  -0.0041   0.0066   0.00    9.0
2019/05/09 03:58:44.000  -4387873.7524    733418.3781  -4555182.6754   1  19   0.0079   0.0042   0.0087  -0.0040  -0.0041   0.0066   0.00    7.3
2019/05/09 03:58:45.000  -4387873.7512    733418.3775  -4555182.6739   1  19   0.0080   0.0042   0.0089  -0.0040  -0.0041   0.0067   1.00    6.5
2019/05/09 03:58:46.000  -4387873.7527    733418.3777  -4555182.6750   1  19   0.0084   0.0044   0.0093  -0.0041  -0.0042   0.0070   2.00    7.2
2019/05/09 03:58:47.000  -4387873.7513    733418.3783  -4555182.6740   1  19   0.0079   0.0042   0.0087  -0.0040  -0.0041   0.0066   0.00    7.2
2019/05/09 03:58:48.000  -4387873.7496    733418.3772  -4555182.6722   1  19   0.0079   0.0042   0.0087  -0.0040  -0.0041   0.0066   0.00    7.7
2019/05/09 03:58:49.000  -4387873.7496    733418.3777  -4555182.6733   1  19   0.0079   0.0042   0.0087  -0.0040  -0.0041   0.0066   0.00    8.1
2019/05/09 03:58:50.000  -4387873.7507    733418.3774  -4555182.6739   1  19   0.0080   0.0042   0.0089  -0.0040  -0.0041   0.0067   1.00    7.4
2019/05/09 03:58:51.000  -4387873.7503    733418.3770  -4555182.6756   1  19   0.0084   0.0044   0.0093  -0.0041  -0.0043   0.0070   2.00    6.9
2019/05/09 03:58:52.000  -4387873.7487    733418.3779  -4555182.6731   1  19   0.0089   0.0046   0.0099  -0.0043  -0.0044   0.0075   3.00    6.9
2019/05/09 03:58:53.000  -4387873.7513    733418.3784  -4555182.6723   1  19   0.0079   0.0042   0.0087  -0.0040  -0.0041   0.0066   0.00    9.8
2019/05/09 03:58:54.000  -4387873.7496    733418.3770  -4555182.6732   1  19   0.0079   0.0042   0.0087  -0.0040  -0.0041   0.0066   0.00    9.2
2019/05/09 03:58:55.000  -4387873.7518    733418.3789  -4555182.6741   1  19   0.0080   0.0043   0.0089  -0.0040  -0.0041   0.0067   1.00   13.0
2019/05/09 03:58:56.000  -4387873.7520    733418.3804  -4555182.6757   1  19   0.0084   0.0044   0.0093  -0.0041  -0.0043   0.0070   2.00    9.9
2019/05/09 03:58:57.000  -4387873.7510    733418.3789  -4555182.6756   1  19   0.0089   0.0046   0.0099  -0.0043  -0.0044   0.0075   3.00   11.3
2019/05/09 03:58:58.000  -4387873.7493    733418.3776  -4555182.6722   1  19   0.0079   0.0042   0.0087  -0.0040  -0.0041   0.0066   0.00    8.5
2019/05/09 03:58:59.000  -4387873.7502    733418.3794  -4555182.6738   1  19   0.0080   0.0043   0.0089  -0.0040  -0.0041   0.0067   1.00    7.1
2019/05/09 03:59:00.000  -4387873.7517    733418.3797  -4555182.6727   1  19   0.0084   0.0044   0.0093  -0.0041  -0.0043   0.0070   2.00    8.2
2019/05/09 03:59:01.000  -4387873.7511    733418.3784  -4555182.6719   1  19   0.0089   0.0046   0.0099  -0.0043  -0.0044   0.0075   3.00    8.0
2019/05/09 03:59:02.000  -4387873.7534    733418.3778  -4555182.6753   1  19   0.0079   0.0042   0.0087  -0.0040  -0.0041   0.0066   0.00   11.5
2019/05/09 03:59:03.000  -4387873.7526    733418.3775  -4555182.6758   1  19   0.0080   0.0043   0.0089  -0.0040  -0.0041   0.0067   1.00   12.4
2019/05/09 03:59:04.000  -4387873.7520    733418.3774  -4555182.6745   1  19   0.0079   0.0042   0.0087  -0.0040  -0.0041   0.0066   0.00    9.9
2019/05/09 03:59:05.000  -4387873.7517    733418.3778  -4555182.6753   1  19   0.0079   0.0042   0.0087  -0.0040  -0.0041   0.0066   0.00    7.9
2019/05/09 03:59:06.000  -4387873.7523    733418.3778  -4555182.6724   1  19   0.0079   0.0042   0.0087  -0.0040  -0.0041   0.0066   0.00    7.9
2019/05/09 03:59:07.000  -4387873.7516    733418.3772  -4555182.6737   1  19   0.0080   0.0043   0.0089  -0.0040  -0.0041   0.0067   1.00    9.8
2019/05/09 03:59:08.000  -4387873.7531    733418.3787  -4555182.6733   1  19   0.0084   0.0044   0.0093  -0.0041  -0.0043   0.0070   2.00    9.6
2019/05/09 03:59:09.000  -4387873.7515    733418.3780  -4555182.6715   1  19   0.0079   0.0042   0.0087  -0.0040  -0.0041   0.0066   0.00   10.1
2019/05/09 03:59:10.000  -4387873.7493    733418.3768  -4555182.6723   1  19   0.0079   0.0042   0.0087  -0.0040  -0.0041   0.0066   0.00    8.0
2019/05/09 03:59:11.000  -4387873.7520    733418.3776  -4555182.6739   1  19   0.0079   0.0042   0.0087  -0.0040  -0.0041   0.0066   0.00    6.4
2019/05/09 03:59:12.000  -4387873.7515    733418.3777  -4555182.6734   1  19   0.0079   0.0042   0.0087  -0.0040  -0.0041   0.0066   0.00    6.4
2019/05/09 03:59:13.000  -4387873.7513    733418.3780  -4555182.6748   1  19   0.0079   0.0042   0.0087  -0.0040  -0.0041   0.0066   0.00    6.7
2019/05/09 03:59:14.000  -4387873.7513    733418.3780  -4555182.6711   1  19   0.0080   0.0043   0.0089  -0.0040  -0.0041   0.0067   1.00   10.3
2019/05/09 03:59:15.000  -4387873.7504    733418.3783  -4555182.6701   1  19   0.0084   0.0044   0.0093  -0.0041  -0.0043   0.0070   2.00    8.5
2019/05/09 03:59:16.000  -4387873.7526    733418.3770  -4555182.6699   1  19   0.0089   0.0046   0.0099  -0.0043  -0.0044   0.0075   3.00    6.8
2019/05/09 03:59:17.000  -4387873.7512    733418.3771  -4555182.6726   1  19   0.0079   0.0042   0.0087  -0.0040  -0.0041   0.0066   0.00   13.2
2019/05/09 03:59:18.000  -4387873.7510    733418.3762  -4555182.6736   1  19   0.0080   0.0043   0.0089  -0.0040  -0.0042   0.0067   1.00   13.0
2019/05/09 03:59:19.000  -4387873.7539    733418.3774  -4555182.6761   1  19   0.0084   0.0044   0.0093  -0.0041  -0.0043   0.0070   2.00   10.1
2019/05/09 03:59:20.000  -4387873.7515    733418.3772  -4555182.6733   1  19   0.0089   0.0046   0.0099  -0.0043  -0.0044   0.0075   3.00    7.5
2019/05/09 03:59:21.000  -4387873.7513    733418.3776  -4555182.6742   1  19   0.0079   0.0042   0.0087  -0.0040  -0.0041   0.0066   0.00   10.1
2019/05/09 03:59:22.000  -4387873.7504    733418.3775  -4555182.6734   1  19   0.0079   0.0042   0.0087  -0.0040  -0.0041   0.0066   0.00   10.2
2019/05/09 03:59:23.000  -4387873.7491    733418.3771  -4555182.6722   1  19   0.0079   0.0042   0.0087  -0.0040  -0.0041   0.0066   0.00    6.4
2019/05/09 03:59:24.000  -4387873.7516    733418.3786  -4555182.6720   1  19   0.0080   0.0043   0.0089  -0.0040  -0.0042   0.0067   1.00    6.3
2019/05/09 03:59:25.000  -4387873.7502    733418.3783  -4555182.6721   1  19   0.0084   0.0044   0.0093  -0.0041  -0.0043   0.0070   2.00    5.6
2019/05/09 03:59:26.000  -4387873.7523    733418.3778  -4555182.6727   1  19   0.0089   0.0046   0.0099  -0.0043  -0.0044   0.0075   3.00    5.0
2019/05/09 03:59:27.000  -4387873.7507    733418.3771  -4555182.6729   1  19   0.0079   0.0042   0.0087  -0.0040  -0.0041   0.0066   0.00    5.1
2019/05/09 03:59:28.000  -4387873.7512    733418.3787  -4555182.6742   1  19   0.0079   0.0042   0.0087  -0.0040  -0.0041   0.0066   0.00    4.7
2019/05/09 03:59:29.000  -4387873.7521    733418.3779  -4555182.6748   1  19   0.0079   0.0042   0.0087  -0.0040  -0.0041   0.0066   0.00    5.2
2019/05/09 03:59:30.000  -4387873.7539    733418.3787  -4555182.6756   1  19   0.0080   0.0043   0.0089  -0.0040  -0.0042   0.0067   1.00    5.3
2019/05/09 03:59:31.000  -4387873.7531    733418.3794  -4555182.6744   1  19   0.0084   0.0044   0.0093  -0.0041  -0.0043   0.0070   2.00    5.0
2019/05/09 03:59:32.000  -4387873.7567    733418.3791  -4555182.6768   1  19   0.0089   0.0046   0.0099  -0.0043  -0.0045   0.0075   3.00    5.0
2019/05/09 03:59:33.000  -4387873.7526    733418.3797  -4555182.6751   1  19   0.0079   0.0042   0.0087  -0.0040  -0.0041   0.0066   0.00    8.9
2019/05/09 03:59:34.000  -4387873.7539    733418.3790  -4555182.6759   1  19   0.0079   0.0042   0.0087  -0.0040  -0.0041   0.0066   0.00   15.9
2019/05/09 03:59:35.000  -4387873.7517    733418.3786  -4555182.6720   1  19   0.0080   0.0043   0.0089  -0.0040  -0.0042   0.0067   1.00   18.6
2019/05/09 03:59:36.000  -4387873.7536    733418.3786  -4555182.6778   1  19   0.0084   0.0044   0.0093  -0.0041  -0.0043   0.0070   2.00   15.6
2019/05/09 03:59:37.000  -4387873.7546    733418.3783  -4555182.6781   1  19   0.0089   0.0046   0.0099  -0.0043  -0.0045   0.0075   3.00   12.8
2019/05/09 03:59:38.000  -4387873.7544    733418.3780  -4555182.6794   1  19   0.0096   0.0050   0.0108  -0.0045  -0.0047   0.0081   4.00   10.5
2019/05/09 03:59:39.000  -4387873.7561    733418.3786  -4555182.6807   1  19   0.0103   0.0053   0.0117  -0.0048  -0.0050   0.0088   5.00   10.8
2019/05/09 03:59:40.000  -4387873.7523    733418.3790  -4555182.6754   1  19   0.0079   0.0042   0.0087  -0.0040  -0.0041   0.0066   0.00   17.9
2019/05/09 03:59:41.000  -4387873.7506    733418.3769  -4555182.6726   1  19   0.0079   0.0042   0.0087  -0.0040  -0.0041   0.0066   0.00   15.4
2019/05/09 03:59:42.000  -4387873.7534    733418.3786  -4555182.6754   1  19   0.0080   0.0043   0.0089  -0.0040  -0.0042   0.0067   1.00   12.5
2019/05/09 03:59:43.000  -4387873.7519    733418.3781  -4555182.6741   1  19   0.0084   0.0044   0.0093  -0.0041  -0.0043   0.0070   2.00   15.6
2019/05/09 03:59:44.000  -4387873.7524    733418.3776  -4555182.6733   1  19   0.0079   0.0042   0.0087  -0.0040  -0.0041   0.0066   0.00   21.0
2019/05/09 03:59:45.000  -4387873.7515    733418.3781  -4555182.6718   1  19   0.0080   0.0043   0.0089  -0.0040  -0.0042   0.0067   1.00   25.8
2019/05/09 03:59:46.000  -4387873.7515    733418.3785  -4555182.6732   1  19   0.0084   0.0044   0.0093  -0.0041  -0.0043   0.0070   2.00   23.5
2019/05/09 03:59:47.000  -4387873.7532    733418.3800  -4555182.6733   1  19   0.0089   0.0046   0.0099  -0.0043  -0.0045   0.0075   3.00   19.8
2019/05/09 03:59:48.000  -4387873.7516    733418.3787  -4555182.6730   1  19   0.0096   0.0050   0.0108  -0.0045  -0.0047   0.0081   4.00   19.1
2019/05/09 03:59:49.000  -4387873.7530    733418.3804  -4555182.6743   1  19   0.0103   0.0053   0.0117  -0.0048  -0.0050   0.0088   5.00   16.1
2019/05/09 03:59:50.000  -4387873.7540    733418.3782  -4555182.6725   1  19   0.0079   0.0042   0.0088  -0.0040  -0.0041   0.0066   0.00   17.5
2019/05/09 03:59:51.000  -4387873.7525    733418.3772  -4555182.6742   1  19   0.0080   0.0043   0.0089  -0.0040  -0.0042   0.0067   1.00   16.9
2019/05/09 03:59:52.000  -4387873.7496    733418.3772  -4555182.6746   1  19   0.0079   0.0042   0.0088  -0.0040  -0.0041   0.0066   0.00   10.6
2019/05/09 03:59:53.000  -4387873.7496    733418.3780  -4555182.6735   1  19   0.0080   0.0043   0.0089  -0.0040  -0.0042   0.0067   1.00   14.9
2019/05/09 03:59:54.000  -4387873.7497    733418.3787  -4555182.6714   1  19   0.0084   0.0044   0.0093  -0.0041  -0.0043   0.0070   2.00   13.0
2019/05/09 03:59:55.000  -4387873.7503    733418.3778  -4555182.6744   1  19   0.0079   0.0042   0.0088  -0.0040  -0.0041   0.0066   0.00   14.5
2019/05/09 03:59:56.000  -4387873.7496    733418.3783  -4555182.6729   1  19   0.0080   0.0043   0.0089  -0.0040  -0.0042   0.0067   1.00   12.8
2019/05/09 03:59:57.000  -4387873.7501    733418.3784  -4555182.6739   1  19   0.0084   0.0044   0.0093  -0.0042  -0.0043   0.0070   2.00   14.2
2019/05/09 03:59:58.000  -4387873.7502    733418.3787  -4555182.6716   1  20   0.0087   0.0046   0.0099  -0.0044  -0.0045   0.0074   3.00   20.5
2019/05/09 03:59:59.000  -4387873.7522    733418.3802  -4555182.6741   1  20   0.0093   0.0049   0.0107  -0.0046  -0.0047   0.0080   4.00   17.0
2019/05/09 04:00:00.000  -4387873.7514    733418.3791  -4555182.6740   1  20   0.0101   0.0053   0.0117  -0.0049  -0.0050   0.0087   5.00   14.0
2019/05/09 04:00:01.000  -4387873.7513    733418.3795  -4555182.6752   1  20   0.0078   0.0042   0.0087  -0.0041  -0.0042   0.0065   0.00   18.1
2019/05/09 04:00:02.000  -4387873.7493    733418.3777  -4555182.6738   1  20   0.0078   0.0042   0.0087  -0.0041  -0.0042   0.0065   0.00   16.5
2019/05/09 04:00:03.000  -4387873.7509    733418.3783  -4555182.6734   1  20   0.0079   0.0043   0.0089  -0.0041  -0.0042   0.0066   1.00   18.1
2019/05/09 04:00:04.000  -4387873.7493    733418.3784  -4555182.6729   1  20   0.0082   0.0044   0.0093  -0.0042  -0.0043   0.0069   2.00   18.2
2019/05/09 04:00:05.000  -4387873.7490    733418.3787  -4555182.6720   1  20   0.0087   0.0046   0.0099  -0.0044  -0.0045   0.0074   3.00   16.7
2019/05/09 04:00:06.000  -4387873.7498    733418.3786  -4555182.6729   1  20   0.0093   0.0049   0.0107  -0.0046  -0.0047   0.0080   4.00   21.6
2019/05/09 04:00:07.000  -4387873.7499    733418.3791  -4555182.6724   1  20   0.0101   0.0053   0.0117  -0.0049  -0.0050   0.0086   5.00   18.0
2019/05/09 04:00:08.000  -4387873.7498    733418.3798  -4555182.6729   1  20   0.0109   0.0057   0.0127  -0.0052  -0.0054   0.0094   6.00   14.3
2019/05/09 04:00:09.000  -4387873.7514    733418.3772  -4555182.6752   1  20   0.0078   0.0042   0.0087  -0.0041  -0.0042   0.0065   0.00   21.3
2019/05/09 04:00:10.000  -4387873.7516    733418.3786  -4555182.6759   1  20   0.0078   0.0042   0.0087  -0.0041  -0.0042   0.0065   0.00   24.3
2019/05/09 04:00:11.000  -4387873.7511    733418.3779  -4555182.6732   1  20   0.0078   0.0042   0.0087  -0.0041  -0.0042   0.0065   0.00   21.4
2019/05/09 04:00:12.000  -4387873.7508    733418.3776  -4555182.6726   1  20   0.0078   0.0042   0.0087  -0.0041  -0.0042   0.0065   0.00   23.7
2019/05/09 04:00:13.000  -4387873.7503    733418.3773  -4555182.6717   1  20   0.0078   0.0042   0.0087  -0.0041  -0.0042   0.0065   0.00   22.8
2019/05/09 04:00:14.000  -4387873.7518    733418.3788  -4555182.6733   1  20   0.0078   0.0042   0.0087  -0.0041  -0.0042   0.0065   0.00   24.5
2019/05/09 04:00:15.000  -4387873.7513    733418.3778  -4555182.6702   1  20   0.0079   0.0043   0.0089  -0.0041  -0.0042   0.0066   1.00   24.1
2019/05/09 04:00:16.000  -4387873.7524    733418.3785  -4555182.6755   1  20   0.0078   0.0042   0.0087  -0.0041  -0.0042   0.0065   0.00   22.1
2019/05/09 04:00:17.000  -4387873.7520    733418.3788  -4555182.6732   1  20   0.0079   0.0043   0.0089  -0.0041  -0.0042   0.0066   1.00   19.6
2019/05/09 04:00:18.000  -4387873.7507    733418.3784  -4555182.6732   1  20   0.0082   0.0044   0.0093  -0.0042  -0.0043   0.0069   2.00   13.3
2019/05/09 04:00:19.000  -4387873.7509    733418.3779  -4555182.6733   1  20   0.0078   0.0042   0.0087  -0.0041  -0.0042   0.0065   0.00   40.2
2019/05/09 04:00:20.000  -4387873.7529    733418.3791  -4555182.6736   1  20   0.0078   0.0042   0.0087  -0.0041  -0.0042   0.0065   0.00   32.7
2019/05/09 04:00:21.000  -4387873.7527    733418.3805  -4555182.6771   1  20   0.0079   0.0043   0.0089  -0.0041  -0.0042   0.0066   1.00   23.0
2019/05/09 04:00:22.000  -4387873.7513    733418.3805  -4555182.6770   1  20   0.0082   0.0044   0.0093  -0.0042  -0.0043   0.0069   2.00   19.3
2019/05/09 04:00:23.000  -4387873.7500    733418.3780  -4555182.6728   1  20   0.0078   0.0042   0.0087  -0.0041  -0.0042   0.0065   0.00   18.6
2019/05/09 04:00:24.000  -4387873.7520    733418.3781  -4555182.6739   1  20   0.0078   0.0042   0.0087  -0.0041  -0.0042   0.0065   0.00   18.1
2019/05/09 04:00:25.000  -4387873.7508    733418.3783  -4555182.6753   1  20   0.0078   0.0042   0.0087  -0.0041  -0.0042   0.0065   0.00   18.2
2019/05/09 04:00:26.000  -4387873.7534    733418.3794  -4555182.6756   1  20   0.0079   0.0043   0.0089  -0.0041  -0.0042   0.0066   1.00   18.8
2019/05/09 04:00:27.000  -4387873.7522    733418.3788  -4555182.6752   1  20   0.0082   0.0044   0.0093  -0.0042  -0.0043   0.0069   2.00   13.4
2019/05/09 04:00:28.000  -4387873.7514    733418.3791  -4555182.6762   1  20   0.0087   0.0046   0.0099  -0.0044  -0.0045   0.0074   3.00   12.7
2019/05/09 04:00:29.000  -4387873.7501    733418.3785  -4555182.6739   1  20   0.0093   0.0049   0.0107  -0.0046  -0.0047   0.0080   4.00   12.3
2019/05/09 04:00:30.000  -4387873.7511    733418.3784  -4555182.6746   1  20   0.0101   0.0053   0.0117  -0.0049  -0.0050   0.0086   5.00   13.4
2019/05/09 04:00:31.000  -4387873.7491    733418.3781  -4555182.6734   1  20   0.0109   0.0057   0.0127  -0.0052  -0.0054   0.0094   6.00   12.4
2019/05/09 04:00:32.000  -4387873.7507    733418.3802  -4555182.6741   1  20   0.0118   0.0061   0.0139  -0.0055  -0.0058   0.0102   7.00   12.7
2019/05/09 04:00:33.000  -4387873.7512    733418.3786  -4555182.6760   1  20   0.0078   0.0042   0.0087  -0.0041  -0.0042   0.0065   0.00   28.0
2019/05/09 04:00:34.000  -4387873.7523    733418.3784  -4555182.6747   1  20   0.0078   0.0042   0.0087  -0.0041  -0.0042   0.0065   0.00   34.9
2019/05/09 04:00:35.000  -4387873.7503    733418.3773  -4555182.6746   1  20   0.0079   0.0043   0.0089  -0.0041  -0.0042   0.0066   1.00   27.3
2019/05/09 04:00:36.000  -4387873.7504    733418.3778  -4555182.6771   1  20   0.0082   0.0044   0.0093  -0.0042  -0.0043   0.0069   2.00   24.0
2019/05/09 04:00:37.000  -4387873.7497    733418.3791  -4555182.6734   1  20   0.0087   0.0046   0.0099  -0.0044  -0.0045   0.0074   3.00   21.5
2019/05/09 04:00:38.000  -4387873.7491    733418.3785  -4555182.6718   1  20   0.0093   0.0049   0.0107  -0.0046  -0.0048   0.0080   4.00   26.2
2019/05/09 04:00:39.000  -4387873.7495    733418.3789  -4555182.6721   1  20   0.0101   0.0053   0.0117  -0.0049  -0.0050   0.0086   5.00   29.2
2019/05/09 04:00:40.000  -4387873.7493    733418.3785  -4555182.6710   1  20   0.0109   0.0057   0.0127  -0.0052  -0.0054   0.0094   6.00   31.6
2019/05/09 04:00:41.000  -4387873.7479    733418.3789  -4555182.6712   1  20   0.0118   0.0061   0.0139  -0.0055  -0.0058   0.0102   7.00   21.1
2019/05/09 04:00:42.000  -4387873.7483    733418.3792  -4555182.6716   1  20   0.0127   0.0066   0.0150  -0.0058  -0.0062   0.0110   8.00   18.2
2019/05/09 04:00:43.000  -4387873.7495    733418.3801  -4555182.6730   1  20   0.0136   0.0070   0.0163  -0.0062  -0.0066   0.0119   9.00   11.6
2019/05/09 04:00:44.000  -4387873.7473    733418.3789  -4555182.6703   1  20   0.0146   0.0075   0.0175  -0.0066  -0.0071   0.0128  10.00   12.4
2019/05/09 04:00:45.000  -4387873.7480    733418.3791  -4555182.6705   1  20   0.0157   0.0080   0.0188  -0.0069  -0.0075   0.0138  11.00   10.0
2019/05/09 04:00:46.000  -4387873.7479    733418.3795  -4555182.6724   1  20   0.0167   0.0085   0.0201  -0.0073  -0.0080   0.0147  12.00    8.1
2019/05/09 04:00:47.000  -4387873.7456    733418.3800  -4555182.6706   1  20   0.0177   0.0090   0.0215  -0.0077  -0.0085   0.0157  13.00    6.7
2019/05/09 04:00:48.000  -4387873.7480    733418.3809  -4555182.6730   1  20   0.0188   0.0096   0.0228  -0.0081  -0.0090   0.0166  14.00    4.1
2019/05/09 04:00:49.000  -4387873.7504    733418.3787  -4555182.6750   1  20   0.0078   0.0042   0.0088  -0.0041  -0.0042   0.0065   0.00   10.8
2019/05/09 04:00:50.000  -4387873.7514    733418.3790  -4555182.6758   1  20   0.0078   0.0042   0.0088  -0.0041  -0.0042   0.0065   0.00    9.6
2019/05/09 04:00:51.000  -4387873.7521    733418.3792  -4555182.6753   1  20   0.0079   0.0043   0.0089  -0.0041  -0.0042   0.0067   1.00    9.8
2019/05/09 04:00:52.000  -4387873.7515    733418.3795  -4555182.6749   1  20   0.0082   0.0044   0.0093  -0.0042  -0.0043   0.0069   2.00    9.4
2019/05/09 04:00:53.000  -4387873.7508    733418.3803  -4555182.6766   1  20   0.0087   0.0046   0.0099  -0.0044  -0.0045   0.0074   3.00    9.1
2019/05/09 04:00:54.000  -4387873.7506    733418.3777  -4555182.6746   1  20   0.0078   0.0042   0.0088  -0.0041  -0.0042   0.0066   0.00   12.6
2019/05/09 04:00:55.000  -4387873.7521    733418.3790  -4555182.6771   1  20   0.0079   0.0043   0.0089  -0.0041  -0.0042   0.0067   1.00   12.5
2019/05/09 04:00:56.000  -4387873.7512    733418.3800  -4555182.6778   1  20   0.0082   0.0044   0.0093  -0.0042  -0.0043   0.0069   2.00   13.2
2019/05/09 04:00:57.000  -4387873.7517    733418.3787  -4555182.6752   1  20   0.0078   0.0042   0.0088  -0.0041  -0.0042   0.0066   0.00   14.6
2019/05/09 04:00:58.000  -4387873.7515    733418.3783  -4555182.6755   1  20   0.0079   0.0043   0.0089  -0.0041  -0.0042   0.0067   1.00   17.0
2019/05/09 04:00:59.000  -4387873.7525    733418.3776  -4555182.6750   1  20   0.0082   0.0044   0.0093  -0.0042  -0.0043   0.0069   2.00   19.2
2019/05/09 04:01:00.000  -4387873.7524    733418.3778  -4555182.6770   1  20   0.0078   0.0042   0.0088  -0.0041  -0.0042   0.0066   0.00   27.6
2019/05/09 04:01:01.000  -4387873.7538    733418.3793  -4555182.6778   1  20   0.0079   0.0043   0.0089  -0.0041  -0.0042   0.0067   1.00   24.8
2019/05/09 04:01:02.000  -4387873.7540    733418.3798  -4555182.6780   1  20   0.0082   0.0044   0.0093  -0.0042  -0.0043   0.0069   2.00   25.3
2019/05/09 04:01:03.000  -4387873.7542    733418.3792  -4555182.6786   1  20   0.0087   0.0046   0.0099  -0.0044  -0.0045   0.0074   3.00   24.0
2019/05/09 04:01:04.000  -4387873.7510    733418.3783  -4555182.6750   1  20   0.0078   0.0042   0.0088  -0.0041  -0.0042   0.0066   0.00   27.9
2019/05/09 04:01:05.000  -4387873.7526    733418.3791  -4555182.6781   1  20   0.0079   0.0043   0.0089  -0.0041  -0.0042   0.0067   1.00   23.2
2019/05/09 04:01:06.000  -4387873.7522    733418.3795  -4555182.6781   1  20   0.0082   0.0044   0.0093  -0.0042  -0.0043   0.0069   2.00   27.3
2019/05/09 04:01:07.000  -4387873.7538    733418.3786  -4555182.6761   1  20   0.0078   0.0042   0.0088  -0.0041  -0.0042   0.0066   0.00   48.1
2019/05/09 04:01:08.000  -4387873.7522    733418.3788  -4555182.6764   1  20   0.0078   0.0042   0.0088  -0.0041  -0.0042   0.0066   0.00   45.4
2019/05/09 04:01:09.000  -4387873.7516    733418.3778  -4555182.6766   1  20   0.0079   0.0043   0.0089  -0.0041  -0.0042   0.0067   1.00   26.5
2019/05/09 04:01:10.000  -4387873.7523    733418.3789  -4555182.6770   1  20   0.0082   0.0044   0.0093  -0.0042  -0.0043   0.0069   2.00   39.2
2019/05/09 04:01:11.000  -4387873.7515    733418.3792  -4555182.6751   1  20   0.0078   0.0042   0.0088  -0.0041  -0.0042   0.0066   0.00   38.0
2019/05/09 04:01:12.000  -4387873.7505    733418.3795  -4555182.6758   1  20   0.0079   0.0043   0.0089  -0.0041  -0.0042   0.0067   1.00   38.8
2019/05/09 04:01:13.000  -4387873.7516    733418.3794  -4555182.6753   1  20   0.0082   0.0044   0.0093  -0.0042  -0.0043   0.0069   2.00   27.3
2019/05/09 04:01:14.000  -4387873.7537    733418.3796  -4555182.6778   1  20   0.0078   0.0042   0.0088  -0.0041  -0.0042   0.0066   0.00   32.0
2019/05/09 04:01:15.000  -4387873.7542    733418.3795  -4555182.6774   1  20   0.0079   0.0043   0.0089  -0.0041  -0.0042   0.0067   1.00   23.7
2019/05/09 04:01:16.000  -4387873.7524    733418.3796  -4555182.6731   1  20   0.0082   0.0044   0.0093  -0.0042  -0.0043   0.0069   2.00   27.3
2019/05/09 04:01:17.000  -4387873.7514    733418.3790  -4555182.6710   1  20   0.0087   0.0046   0.0099  -0.0044  -0.0045   0.0074   3.00   18.6
2019/05/09 04:01:18.000  -4387873.7504    733418.3794  -4555182.6713   1  20   0.0093   0.0050   0.0107  -0.0046  -0.0048   0.0080   4.00   20.1
2019/05/09 04:01:19.000  -4387873.7491    733418.3793  -4555182.6705   1  20   0.0101   0.0053   0.0117  -0.0049  -0.0051   0.0086   5.00   19.7
2019/05/09 04:01:20.000  -4387873.7520    733418.3771  -4555182.6750   1  20   0.0078   0.0042   0.0088  -0.0041  -0.0042   0.0066   0.00   38.2
2019/05/09 04:01:21.000  -4387873.7522    733418.3783  -4555182.6761   1  20   0.0078   0.0042   0.0088  -0.0041  -0.0042   0.0066   0.00   24.2
2019/05/09 04:01:22.000  -4387873.7513    733418.3775  -4555182.6751   1  20   0.0078   0.0042   0.0088  -0.0041  -0.0042   0.0066   0.00   28.1
2019/05/09 04:01:23.000  -4387873.7512    733418.3779  -4555182.6759   1  20   0.0078   0.0042   0.0088  -0.0041  -0.0042   0.0066   0.00   25.2
2019/05/09 04:01:24.000  -4387873.7493    733418.3790  -4555182.6768   1  20   0.0079   0.0043   0.0089  -0.0041  -0.0042   0.0067   1.00   19.6
2019/05/09 04:01:25.000  -4387873.7494    733418.3792  -4555182.6756   1  20   0.0082   0.0044   0.0093  -0.0042  -0.0043   0.0069   2.00   28.7
2019/05/09 04:01:26.000  -4387873.7521    733418.3778  -4555182.6762   1  20   0.0078   0.0042   0.0088  -0.0041  -0.0042   0.0066   0.00   23.8
2019/05/09 04:01:27.000  -4387873.7504    733418.3777  -4555182.6736   1  20   0.0079   0.0043   0.0089  -0.0041  -0.0042   0.0067   1.00   35.2
2019/05/09 04:01:28.000  -4387873.7504    733418.3789  -4555182.6733   1  20   0.0082   0.0044   0.0093  -0.0042  -0.0043   0.0069   2.00   26.9
2019/05/09 04:01:29.000  -4387873.7494    733418.3792  -4555182.6717   1  20   0.0087   0.0047   0.0099  -0.0044  -0.0045   0.0074   3.00   19.9
2019/05/09 04:01:30.000  -4387873.7514    733418.3793  -4555182.6737   1  20   0.0093   0.0050   0.0108  -0.0046  -0.0048   0.0080   4.00   15.2
2019/05/09 04:01:31.000  -4387873.7536    733418.3780  -4555182.6769   1  20   0.0078   0.0042   0.0088  -0.0041  -0.0042   0.0066   0.00   22.2
2019/05/09 04:01:32.000  -4387873.7534    733418.3781  -4555182.6761   1  20   0.0079   0.0043   0.0089  -0.0041  -0.0042   0.0067   1.00   20.9
2019/05/09 04:01:33.000  -4387873.7552    733418.3791  -4555182.6772   1  20   0.0082   0.0044   0.0093  -0.0042  -0.0043   0.0069   2.00   18.6
2019/05/09 04:01:34.000  -4387873.7553    733418.3799  -4555182.6765   1  20   0.0087   0.0047   0.0099  -0.0044  -0.0045   0.0074   3.00   24.5
2019/05/09 04:01:35.000  -4387873.7567    733418.3813  -4555182.6767   1  20   0.0094   0.0050   0.0108  -0.0046  -0.0048   0.0080   4.00   25.4
2019/05/09 04:01:36.000  -4387873.7575    733418.3821  -4555182.6764   1  20   0.0101   0.0053   0.0117  -0.0049  -0.0051   0.0086   5.00   28.1
2019/05/09 04:01:37.000  -4387873.7601    733418.3836  -4555182.6765   1  20   0.0109   0.0057   0.0127  -0.0052  -0.0054   0.0094   6.00   16.9
2019/05/09 04:01:38.000  -4387873.7582    733418.3835  -4555182.6753   1  20   0.0118   0.0061   0.0138  -0.0055  -0.0058   0.0102   7.00   14.2
2019/05/09 04:01:39.000  -4387873.7595    733418.3840  -4555182.6764   1  20   0.0127   0.0066   0.0150  -0.0058  -0.0062   0.0110   8.00   10.6
2019/05/09 04:01:40.000  -4387873.7596    733418.3856  -4555182.6773   1  20   0.0136   0.0070   0.0162  -0.0062  -0.0066   0.0119   9.00    8.6
2019/05/09 04:01:41.000  -4387873.7526    733418.3774  -4555182.6755   1  20   0.0078   0.0042   0.0088  -0.0041  -0.0042   0.0066   0.00   27.6
2019/05/09 04:01:42.000  -4387873.7530    733418.3788  -4555182.6775   1  20   0.0079   0.0043   0.0089  -0.0041  -0.0042   0.0067   1.00   22.6
2019/05/09 04:01:43.000  -4387873.7515    733418.3775  -4555182.6748   1  20   0.0082   0.0044   0.0093  -0.0042  -0.0044   0.0069   2.00   17.5
2019/05/09 04:01:44.000  -4387873.7528    733418.3778  -4555182.6761   1  20   0.0087   0.0047   0.0099  -0.0044  -0.0045   0.0074   3.00   15.0
2019/05/09 04:01:45.000  -4387873.7523    733418.3788  -4555182.6767   1  20   0.0094   0.0050   0.0108  -0.0046  -0.0048   0.0080   4.00   12.5
2019/05/09 04:01:46.000  -4387873.7501    733418.3783  -4555182.6756   1  20   0.0101   0.0053   0.0117  -0.0049  -0.0051   0.0086   5.00   16.2
2019/05/09 04:01:47.000  -4387873.7505    733418.3780  -4555182.6763   1  20   0.0078   0.0042   0.0088  -0.0041  -0.0042   0.0066   0.00   25.5
2019/05/09 04:01:48.000  -4387873.7498    733418.3777  -4555182.6790   1  20   0.0079   0.0043   0.0089  -0.0041  -0.0042   0.0067   1.00   29.0
2019/05/09 04:01:49.000  -4387873.7499    733418.3773  -4555182.6760   1  20   0.0082   0.0044   0.0093  -0.0042  -0.0044   0.0069   2.00   30.3
2019/05/09 04:01:50.000  -4387873.7493    733418.3778  -4555182.6761   1  20   0.0087   0.0047   0.0099  -0.0044  -0.0045   0.0074   3.00   19.1
2019/05/09 04:01:51.000  -4387873.7507    733418.3789  -4555182.6770   1  20   0.0094   0.0050   0.0108  -0.0046  -0.0048   0.0080   4.00   21.5
2019/05/09 04:01:52.000  -4387873.7504    733418.3788  -4555182.6765   1  20   0.0101   0.0053   0.0117  -0.0049  -0.0051   0.0086   5.00   16.3
2019/05/09 04:01:53.000  -4387873.7511    733418.3786  -4555182.6782   1  20   0.0109   0.0057   0.0127  -0.0052  -0.0054   0.0094   6.00   17.9
2019/05/09 04:01:54.000  -4387873.7502    733418.3781  -4555182.6786   1  20   0.0118   0.0061   0.0138  -0.0055  -0.0058   0.0102   7.00   14.7
2019/05/09 04:01:55.000  -4387873.7523    733418.3780  -4555182.6778   1  20   0.0078   0.0042   0.0088  -0.0041  -0.0042   0.0066   0.00   24.9
2019/05/09 04:01:56.000  -4387873.7525    733418.3798  -4555182.6802   1  20   0.0079   0.0043   0.0089  -0.0041  -0.0042   0.0067   1.00   16.7
2019/05/09 04:01:57.000  -4387873.7517    733418.3779  -4555182.6793   1  20   0.0078   0.0042   0.0088  -0.0041  -0.0042   0.0066   0.00   20.6
2019/05/09 04:01:58.000  -4387873.7505    733418.3774  -4555182.6781   1  20   0.0078   0.0042   0.0088  -0.0041  -0.0042   0.0066   0.00   20.7
2019/05/09 04:01:59.000  -4387873.7514    733418.3787  -4555182.6781   1  20   0.0079   0.0043   0.0089  -0.0041  -0.0042   0.0067   1.00   15.7
2019/05/09 04:02:00.000  -4387873.7495    733418.3774  -4555182.6773   1  20   0.0082   0.0044   0.0093  -0.0042  -0.0044   0.0069   2.00   16.2
2019/05/09 04:02:01.000  -4387873.7511    733418.3782  -4555182.6800   1  20   0.0087   0.0047   0.0100  -0.0044  -0.0045   0.0074   3.00   12.7
2019/05/09 04:02:02.000  -4387873.7531    733418.3786  -4555182.6791   1  20   0.0094   0.0050   0.0108  -0.0046  -0.0048   0.0080   4.00   10.9
2019/05/09 04:02:03.000  -4387873.7521    733418.3782  -4555182.6763   1  20   0.0101   0.0053   0.0117  -0.0049  -0.0051   0.0086   5.00    9.6
2019/05/09 04:02:04.000  -4387873.7508    733418.3777  -4555182.6770   1  20   0.0109   0.0057   0.0127  -0.0052  -0.0054   0.0094   6.00    7.3
2019/05/09 04:02:05.000  -4387873.7517    733418.3790  -4555182.6777   1  20   0.0118   0.0061   0.0138  -0.0055  -0.0058   0.0102   7.00    7.2
2019/05/09 04:02:06.000  -4387873.7515    733418.3783  -4555182.6776   1  20   0.0127   0.0066   0.0150  -0.0058  -0.0062   0.0110   8.00    6.7
2019/05/09 04:02:07.000  -4387873.7511    733418.3773  -4555182.6794   1  20   0.0136   0.0070   0.0162  -0.0062  -0.0066   0.0119   9.00    8.3
2019/05/09 04:02:08.000  -4387873.7530    733418.3783  -4555182.6793   1  20   0.0146   0.0075   0.0175  -0.0065  -0.0071   0.0128  10.00    7.3
2019/05/09 04:02:09.000  -4387873.7525    733418.3775  -4555182.6800   1  20   0.0156   0.0080   0.0187  -0.0069  -0.0075   0.0137  11.00    5.8
2019/05/09 04:02:10.000  -4387873.7525    733418.3775  -4555182.6794   1  20   0.0167   0.0085   0.0200  -0.0073  -0.0080   0.0146  12.00    4.6
2019/05/09 04:02:11.000  -4387873.7506    733418.3777  -4555182.6766   1  20   0.0078   0.0042   0.0088  -0.0041  -0.0042   0.0066   0.00   18.2
2019/05/09 04:02:12.000  -4387873.7497    733418.3764  -4555182.6763   1  20   0.0079   0.0043   0.0089  -0.0041  -0.0042   0.0067   1.00   20.8
2019/05/09 04:02:13.000  -4387873.7507    733418.3778  -4555182.6763   1  20   0.0082   0.0044   0.0093  -0.0042  -0.0044   0.0069   2.00   20.0
2019/05/09 04:02:14.000  -4387873.7503    733418.3778  -4555182.6755   1  20   0.0087   0.0047   0.0100  -0.0044  -0.0045   0.0074   3.00   19.3
2019/05/09 04:02:15.000  -4387873.7503    733418.3784  -4555182.6763   1  20   0.0094   0.0050   0.0108  -0.0046  -0.0048   0.0080   4.00   20.1
2019/05/09 04:02:16.000  -4387873.7503    733418.3782  -4555182.6754   1  20   0.0101   0.0053   0.0117  -0.0049  -0.0051   0.0086   5.00   17.8
2019/05/09 04:02:17.000  -4387873.7492    733418.3773  -4555182.6733   1  20   0.0109   0.0057   0.0127  -0.0052  -0.0054   0.0094   6.00   19.0
2019/05/09 04:02:18.000  -4387873.7481    733418.3774  -4555182.6740   1  20   0.0118   0.0061   0.0138  -0.0055  -0.0058   0.0102   7.00   20.2
2019/05/09 04:02:19.000  -4387873.7471    733418.3768  -4555182.6744   1  20   0.0127   0.0066   0.0150  -0.0058  -0.0062   0.0110   8.00   22.2
2019/05/09 04:02:20.000  -4387873.7513    733418.3773  -4555182.6757   1  20   0.0078   0.0042   0.0088  -0.0041  -0.0042   0.0066   0.00   20.7
2019/05/09 04:02:21.000  -4387873.7521    733418.3774  -4555182.6771   1  20   0.0078   0.0042   0.0088  -0.0041  -0.0042   0.0066   0.00   19.2
2019/05/09 04:02:22.000  -4387873.7504    733418.3782  -4555182.6759   1  20   0.0078   0.0042   0.0088  -0.0041  -0.0042   0.0066   0.00   18.2
2019/05/09 04:02:23.000  -4387873.7502    733418.3780  -4555182.6750   1  20   0.0078   0.0042   0.0088  -0.0041  -0.0042   0.0066   0.00   18.8
2019/05/09 04:02:24.000  -4387873.7485    733418.3784  -4555182.6770   1  20   0.0079   0.0043   0.0089  -0.0041  -0.0043   0.0067   1.00   15.9
2019/05/09 04:02:25.000  -4387873.7483    733418.3801  -4555182.6757   1  20   0.0082   0.0044   0.0093  -0.0042  -0.0044   0.0069   2.00   12.1
2019/05/09 04:02:26.000  -4387873.7458    733418.3807  -4555182.6737   1  20   0.0087   0.0047   0.0100  -0.0044  -0.0046   0.0074   3.00    8.9
2019/05/09 04:02:27.000  -4387873.7506    733418.3789  -4555182.6762   1  20   0.0078   0.0042   0.0088  -0.0041  -0.0042   0.0066   0.00   12.9
2019/05/09 04:02:28.000  -4387873.7486    733418.3783  -4555182.6745   1  20   0.0079   0.0043   0.0089  -0.0041  -0.0043   0.0067   1.00   10.9
2019/05/09 04:02:29.000  -4387873.7515    733418.3787  -4555182.6757   1  20   0.0078   0.0042   0.0088  -0.0041  -0.0042   0.0066   0.00   13.7
2019/05/09 04:02:30.000  -4387873.7526    733418.3799  -4555182.6785   1  20   0.0078   0.0042   0.0088  -0.0041  -0.0042   0.0066   0.00   13.8
2019/05/09 04:02:31.000  -4387873.7504    733418.3789  -4555182.6772   1  20   0.0078   0.0042   0.0088  -0.0041  -0.0042   0.0066   0.00   10.5
2019/05/09 04:02:32.000  -4387873.7478    733418.3789  -4555182.6769   1  20   0.0079   0.0043   0.0089  -0.0041  -0.0043   0.0067   1.00   11.9
2019/05/09 04:02:33.000  -4387873.7511    733418.3784  -4555182.6775   1  20   0.0078   0.0042   0.0088  -0.0041  -0.0042   0.0066   0.00   13.7
2019/05/09 04:02:34.000  -4387873.7508    733418.3781  -4555182.6759   1  20   0.0079   0.0043   0.0089  -0.0041  -0.0043   0.0067   1.00   10.6
2019/05/09 04:02:35.000  -4387873.7480    733418.3785  -4555182.6742   1  20   0.0082   0.0044   0.0093  -0.0042  -0.0044   0.0069   2.00   13.1
2019/05/09 04:02:36.000  -4387873.7521    733418.3790  -4555182.6764   1  20   0.0078   0.0042   0.0088  -0.0041  -0.0042   0.0066   0.00   18.8
2019/05/09 04:02:37.000  -4387873.7487    733418.3779  -4555182.6754   1  20   0.0079   0.0043   0.0089  -0.0041  -0.0043   0.0067   1.00   20.3
2019/05/09 04:02:38.000  -4387873.7506    733418.3788  -4555182.6754   1  20   0.0078   0.0042   0.0088  -0.0041  -0.0042   0.0066   0.00   18.6
2019/05/09 04:02:39.000  -4387873.7523    733418.3803  -4555182.6764   1  20   0.0079   0.0043   0.0089  -0.0041  -0.0043   0.0067   1.00   12.1
2019/05/09 04:02:40.000  -4387873.7494    733418.3785  -4555182.6758   1  20   0.0078   0.0042   0.0088  -0.0041  -0.0042   0.0066   0.00   15.8
2019/05/09 04:02:41.000  -4387873.7474    733418.3783  -4555182.6749   1  20   0.0079   0.0043   0.0089  -0.0041  -0.0043   0.0067   1.00   12.6
2019/05/09 04:02:42.000  -4387873.7484    733418.3777  -4555182.6734   1  20   0.0078   0.0042   0.0088  -0.0041  -0.0042   0.0066   0.00   14.2
2019/05/09 04:02:43.000  -4387873.7477    733418.3779  -4555182.6725   1  20   0.0079   0.0043   0.0089  -0.0041  -0.0043   0.0067   1.00   15.3
2019/05/09 04:02:44.000  -4387873.7505    733418.3775  -4555182.6751   1  20   0.0078   0.0042   0.0088  -0.0041  -0.0042   0.0066   0.00   15.4
2019/05/09 04:02:45.000  -4387873.7485    733418.3767  -4555182.6724   1  20   0.0079   0.0043   0.0089  -0.0041  -0.0043   0.0067   1.00   13.9
2019/05/09 04:02:46.000  -4387873.7505    733418.3771  -4555182.6740   1  20   0.0078   0.0042   0.0088  -0.0041  -0.0042   0.0066   0.00   13.5
2019/05/09 04:02:47.000  -4387873.7509    733418.3766  -4555182.6740   1  20   0.0078   0.0042   0.0088  -0.0041  -0.0042   0.0066   0.00   15.8
2019/05/09 04:02:48.000  -4387873.7502    733418.3767  -4555182.6737   1  20   0.0078   0.0042   0.0088  -0.0041  -0.0042   0.0066   0.00   11.3
2019/05/09 04:02:49.000  -4387873.7487    733418.3760  -4555182.6721   1  20   0.0078   0.0042   0.0088  -0.0041  -0.0042   0.0066   0.00   19.2
2019/05/09 04:02:50.000  -4387873.7500    733418.3767  -4555182.6729   1  20   0.0078   0.0042   0.0088  -0.0041  -0.0042   0.0066   0.00   12.7
2019/05/09 04:02:51.000  -4387873.7527    733418.3768  -4555182.6734   1  20   0.0078   0.0042   0.0088  -0.0041  -0.0042   0.0066   0.00   24.6
2019/05/09 04:02:52.000  -4387873.7504    733418.3773  -4555182.6718   1  20   0.0079   0.0043   0.0089  -0.0041  -0.0043   0.0067   1.00   19.1
2019/05/09 04:02:53.000  -4387873.7498    733418.3776  -4555182.6714   1  20   0.0082   0.0044   0.0093  -0.0042  -0.0044   0.0070   2.00   15.7
2019/05/09 04:02:54.000  -4387873.7492    733418.3774  -4555182.6750   1  20   0.0078   0.0042   0.0088  -0.0041  -0.0042   0.0066   0.00   16.2
2019/05/09 04:02:55.000  -4387873.7496    733418.3775  -4555182.6741   1  20   0.0078   0.0042   0.0088  -0.0041  -0.0042   0.0066   0.00   18.1
2019/05/09 04:02:56.000  -4387873.7508    733418.3776  -4555182.6733   1  20   0.0079   0.0043   0.0089  -0.0041  -0.0043   0.0067   1.00   17.0
2019/05/09 04:02:57.000  -4387873.7514    733418.3777  -4555182.6747   1  20   0.0082   0.0044   0.0093  -0.0042  -0.0044   0.0070   2.00   18.3
2019/05/09 04:02:58.000  -4387873.7508    733418.3770  -4555182.6746   1  20   0.0078   0.0042   0.0088  -0.0041  -0.0042   0.0066   0.00   17.9
2019/05/09 04:02:59.000  -4387873.7504    733418.3777  -4555182.6742   1  20   0.0078   0.0042   0.0088  -0.0041  -0.0042   0.0066   0.00   17.5
2019/05/09 04:03:00.000  -4387873.7488    733418.3778  -4555182.6724   1  20   0.0079   0.0043   0.0089  -0.0041  -0.0043   0.0067   1.00   17.5
2019/05/09 04:03:01.000  -4387873.7485    733418.3781  -4555182.6735   1  20   0.0082   0.0044   0.0093  -0.0043  -0.0044   0.0070   2.00   14.8
2019/05/09 04:03:02.000  -4387873.7507    733418.3767  -4555182.6718   1  20   0.0078   0.0042   0.0088  -0.0041  -0.0042   0.0066   0.00   21.4
2019/05/09 04:03:03.000  -4387873.7501    733418.3774  -4555182.6721   1  20   0.0079   0.0043   0.0089  -0.0041  -0.0043   0.0067   1.00   14.7
2019/05/09 04:03:04.000  -4387873.7514    733418.3795  -4555182.6768   1  20   0.0078   0.0042   0.0088  -0.0041  -0.0042   0.0066   0.00   24.6
2019/05/09 04:03:05.000  -4387873.7495    733418.3773  -4555182.6738   1  20   0.0079   0.0043   0.0089  -0.0041  -0.0043   0.0067   1.00   29.5
2019/05/09 04:03:06.000  -4387873.7483    733418.3775  -4555182.6729   1  20   0.0082   0.0044   0.0093  -0.0043  -0.0044   0.0070   2.00   36.8
2019/05/09 04:03:07.000  -4387873.7517    733418.3772  -4555182.6738   1  20   0.0078   0.0042   0.0088  -0.0041  -0.0042   0.0066   0.00   23.5
2019/05/09 04:03:08.000  -4387873.7520    733418.3773  -4555182.6750   1  20   0.0079   0.0043   0.0089  -0.0041  -0.0043   0.0067   1.00   25.0
2019/05/09 04:03:09.000  -4387873.7498    733418.3778  -4555182.6756   1  20   0.0082   0.0044   0.0093  -0.0043  -0.0044   0.0070   2.00   25.6
2019/05/09 04:03:10.000  -4387873.7499    733418.3773  -4555182.6727   1  20   0.0078   0.0042   0.0088  -0.0041  -0.0042   0.0066   0.00   30.8
2019/05/09 04:03:11.000  -4387873.7484    733418.3782  -4555182.6738   1  20   0.0079   0.0043   0.0089  -0.0041  -0.0043   0.0067   1.00   34.6
2019/05/09 04:03:12.000  -4387873.7485    733418.3786  -4555182.6723   1  20   0.0082   0.0044   0.0093  -0.0043  -0.0044   0.0070   2.00   26.8
2019/05/09 04:03:13.000  -4387873.7488    733418.3771  -4555182.6745   1  20   0.0078   0.0042   0.0088  -0.0041  -0.0042   0.0066   0.00   15.1
2019/05/09 04:03:14.000  -4387873.7499    733418.3763  -4555182.6741   1  20   0.0078   0.0042   0.0088  -0.0041  -0.0042   0.0066   0.00   10.1
2019/05/09 04:03:15.000  -4387873.7515    733418.3765  -4555182.6752   1  20   0.0078   0.0042   0.0088  -0.0041  -0.0042   0.0066   0.00   15.7
2019/05/09 04:03:16.000  -4387873.7509    733418.3777  -4555182.6762   1  20   0.0078   0.0042   0.0088  -0.0041  -0.0042   0.0066   0.00   12.0
2019/05/09 04:03:17.000  -4387873.7507    733418.3777  -4555182.6720   1  20   0.0079   0.0043   0.0089  -0.0041  -0.0043   0.0067   1.00   10.3
2019/05/09 04:03:18.000  -4387873.7509    733418.3778  -4555182.6738   1  20   0.0082   0.0044   0.0093  -0.0043  -0.0044   0.0070   2.00    6.3
2019/05/09 04:03:19.000  -4387873.7488    733418.3773  -4555182.6729   1  20   0.0087   0.0047   0.0100  -0.0044  -0.0046   0.0074   3.00    7.0
2019/05/09 04:03:20.000  -4387873.7536    733418.3786  -4555182.6761   1  20   0.0078   0.0042   0.0088  -0.0041  -0.0042   0.0066   0.00   11.1
2019/05/09 04:03:21.000  -4387873.7535    733418.3780  -4555182.6762   1  20   0.0078   0.0042   0.0088  -0.0041  -0.0042   0.0066   0.00   16.2
2019/05/09 04:03:22.000  -4387873.7516    733418.3764  -4555182.6736   1  20   0.0078   0.0042   0.0088  -0.0041  -0.0042   0.0066   0.00   25.2
2019/05/09 04:03:23.000  -4387873.7539    733418.3774  -4555182.6754   1  20   0.0078   0.0042   0.0088  -0.0041  -0.0042   0.0066   0.00   34.4
2019/05/09 04:03:24.000  -4387873.7542    733418.3780  -4555182.6765   1  20   0.0078   0.0042   0.0088  -0.0041  -0.0042   0.0066   0.00   25.0
2019/05/09 04:03:25.000  -4387873.7539    733418.3786  -4555182.6779   1  20   0.0079   0.0043   0.0089  -0.0041  -0.0043   0.0067   1.00   22.7
2019/05/09 04:03:26.000  -4387873.7531    733418.3788  -4555182.6783   1  20   0.0082   0.0044   0.0093  -0.0043  -0.0044   0.0070   2.00   22.9
2019/05/09 04:03:27.000  -4387873.7534    733418.3797  -4555182.6775   1  20   0.0087   0.0047   0.0100  -0.0044  -0.0046   0.0074   3.00   28.5
2019/05/09 04:03:28.000  -4387873.7536    733418.3784  -4555182.6751   1  20   0.0078   0.0042   0.0088  -0.0041  -0.0042   0.0066   0.00   20.3
2019/05/09 04:03:29.000  -4387873.7508    733418.3775  -4555182.6712   1  20   0.0079   0.0043   0.0089  -0.0041  -0.0043   0.0067   1.00   18.8
2019/05/09 04:03:30.000  -4387873.7536    733418.3780  -4555182.6754   1  20   0.0078   0.0042   0.0088  -0.0041  -0.0042   0.0066   0.00   14.5
2019/05/09 04:03:31.000  -4387873.7531    733418.3781  -4555182.6769   1  20   0.0079   0.0043   0.0089  -0.0041  -0.0043   0.0067   1.00   16.5
2019/05/09 04:03:32.000  -4387873.7560    733418.3785  -4555182.6762   1  20   0.0082   0.0044   0.0093  -0.0043  -0.0044   0.0070   2.00   13.2
2019/05/09 04:03:33.000  -4387873.7524    733418.3759  -4555182.6732   1  20   0.0078   0.0042   0.0088  -0.0041  -0.0042   0.0066   0.00   12.7
2019/05/09 04:03:34.000  -4387873.7526    733418.3773  -4555182.6723   1  20   0.0079   0.0043   0.0090  -0.0041  -0.0043   0.0067   1.00   11.8
2019/05/09 04:03:35.000  -4387873.7539    733418.3785  -4555182.6756   1  20   0.0078   0.0042   0.0088  -0.0041  -0.0042   0.0066   0.00   15.0
2019/05/09 04:03:36.000  -4387873.7529    733418.3784  -4555182.6729   1  20   0.0079   0.0043   0.0090  -0.0041  -0.0043   0.0067   1.00   17.2
2019/05/09 04:03:37.000  -4387873.7539    733418.3787  -4555182.6774   1  20   0.0078   0.0042   0.0088  -0.0041  -0.0042   0.0066   0.00   27.2
2019/05/09 04:03:38.000  -4387873.7550    733418.3778  -4555182.6787   1  20   0.0079   0.0043   0.0090  -0.0041  -0.0043   0.0067   1.00   24.8
2019/05/09 04:03:39.000  -4387873.7551    733418.3780  -4555182.6784   1  20   0.0078   0.0042   0.0088  -0.0041  -0.0042   0.0066   0.00   32.3
2019/05/09 04:03:40.000  -4387873.7546    733418.3798  -4555182.6779   1  20   0.0078   0.0042   0.0088  -0.0041  -0.0042   0.0066   0.00   21.0
2019/05/09 04:03:41.000  -4387873.7542    733418.3801  -4555182.6785   1  20   0.0079   0.0043   0.0090  -0.0041  -0.0043   0.0067   1.00   18.9
2019/05/09 04:03:42.000  -4387873.7517    733418.3781  -4555182.6760   1  20   0.0078   0.0042   0.0088  -0.0041  -0.0043   0.0066   0.00   26.3
2019/05/09 04:03:43.000  -4387873.7528    733418.3787  -4555182.6769   1  20   0.0079   0.0043   0.0090  -0.0041  -0.0043   0.0067   1.00   26.4
2019/05/09 04:03:44.000  -4387873.7546    733418.3795  -4555182.6781   1  20   0.0082   0.0044   0.0094  -0.0043  -0.0044   0.0070   2.00   32.9
2019/05/09 04:03:45.000  -4387873.7526    733418.3792  -4555182.6784   1  20   0.0087   0.0047   0.0100  -0.0044  -0.0046   0.0074   3.00   36.1
2019/05/09 04:03:46.000  -4387873.7523    733418.3774  -4555182.6771   1  20   0.0094   0.0050   0.0108  -0.0047  -0.0048   0.0080   4.00   31.0
2019/05/09 04:03:47.000  -4387873.7514    733418.3778  -4555182.6766   1  20   0.0101   0.0053   0.0117  -0.0049  -0.0051   0.0086   5.00   40.5
2019/05/09 04:03:48.000  -4387873.7528    733418.3785  -4555182.6773   1  20   0.0109   0.0057   0.0127  -0.0052  -0.0055   0.0094   6.00   30.3
2019/05/09 04:03:49.000  -4387873.7532    733418.3781  -4555182.6759   1  20   0.0118   0.0061   0.0138  -0.0055  -0.0058   0.0101   7.00   19.2
2019/05/09 04:03:50.000  -4387873.7547    733418.3795  -4555182.6777   1  20   0.0127   0.0066   0.0149  -0.0058  -0.0062   0.0110   8.00   24.4
2019/05/09 04:03:51.000  -4387873.7540    733418.3778  -4555182.6776   1  20   0.0078   0.0042   0.0088  -0.0041  -0.0043   0.0066   0.00    7.4
2019/05/09 04:03:52.000  -4387873.7538    733418.3774  -4555182.6780   1  20   0.0079   0.0043   0.0090  -0.0041  -0.0043   0.0067   1.00    7.2
2019/05/09 04:03:53.000  -4387873.7548    733418.3787  -4555182.6769   1  20   0.0078   0.0042   0.0088  -0.0041  -0.0043   0.0066   0.00    7.5
2019/05/09 04:03:54.000  -4387873.7537    733418.3782  -4555182.6751   1  20   0.0079   0.0043   0.0090  -0.0041  -0.0043   0.0067   1.00    5.8
2019/05/09 04:03:55.000  -4387873.7531    733418.3776  -4555182.6774   1  20   0.0082   0.0044   0.0094  -0.0043  -0.0044   0.0070   2.00    6.3
2019/05/09 04:03:56.000  -4387873.7515    733418.3763  -4555182.6769   1  20   0.0078   0.0042   0.0088  -0.0041  -0.0043   0.0066   0.00    7.6
2019/05/09 04:03:57.000  -4387873.7500    733418.3781  -4555182.6756   1  20   0.0079   0.0043   0.0090  -0.0041  -0.0043   0.0067   1.00    7.1
2019/05/09 04:03:58.000  -4387873.7539    733418.3788  -4555182.6791   1  20   0.0078   0.0042   0.0088  -0.0041  -0.0043   0.0066   0.00   10.0
2019/05/09 04:03:59.000  -4387873.7534    733418.3784  -4555182.6771   1  20   0.0079   0.0043   0.0090  -0.0041  -0.0043   0.0067   1.00   11.8
2019/05/09 04:04:00.000  -4387873.7548    733418.3797  -4555182.6773   1  20   0.0082   0.0044   0.0094  -0.0043  -0.0044   0.0070   2.00   10.9
2019/05/09 04:04:01.000  -4387873.7535    733418.3789  -4555182.6751   1  20   0.0087   0.0047   0.0100  -0.0044  -0.0046   0.0074   3.00    9.2
2019/05/09 04:04:02.000  -4387873.7552    733418.3790  -4555182.6788   1  20   0.0078   0.0042   0.0088  -0.0041  -0.0043   0.0066   0.00   20.4
2019/05/09 04:04:03.000  -4387873.7522    733418.3773  -4555182.6778   1  20   0.0078   0.0042   0.0088  -0.0041  -0.0043   0.0066   0.00   21.5
2019/05/09 04:04:04.000  -4387873.7541    733418.3773  -4555182.6774   1  20   0.0078   0.0042   0.0088  -0.0041  -0.0043   0.0066   0.00   28.5
2019/05/09 04:04:05.000  -4387873.7540    733418.3791  -4555182.6783   1  20   0.0079   0.0043   0.0090  -0.0041  -0.0043   0.0067   1.00   28.4
2019/05/09 04:04:06.000  -4387873.7534    733418.3788  -4555182.6778   1  20   0.0082   0.0044   0.0094  -0.0043  -0.0044   0.0070   2.00   36.5
2019/05/09 04:04:07.000  -4387873.7522    733418.3786  -4555182.6767   1  20   0.0087   0.0047   0.0100  -0.0044  -0.0046   0.0074   3.00   40.8
2019/05/09 04:04:08.000  -4387873.7534    733418.3786  -4555182.6785   1  20   0.0094   0.0050   0.0108  -0.0047  -0.0048   0.0080   4.00   33.3
2019/05/09 04:04:09.000  -4387873.7550    733418.3802  -4555182.6803   1  20   0.0101   0.0053   0.0117  -0.0049  -0.0051   0.0086   5.00   27.3
2019/05/09 04:04:10.000  -4387873.7518    733418.3774  -4555182.6792   1  20   0.0078   0.0042   0.0088  -0.0041  -0.0043   0.0066   0.00   33.5
2019/05/09 04:04:11.000  -4387873.7532    733418.3771  -4555182.6789   1  20   0.0079   0.0043   0.0090  -0.0041  -0.0043   0.0067   1.00   36.9
2019/05/09 04:04:12.000  -4387873.7538    733418.3777  -4555182.6779   1  20   0.0078   0.0042   0.0088  -0.0041  -0.0043   0.0066   0.00   61.8
2019/05/09 04:04:13.000  -4387873.7549    733418.3786  -4555182.6789   1  20   0.0078   0.0042   0.0088  -0.0041  -0.0043   0.0066   0.00   66.1
2019/05/09 04:04:14.000  -4387873.7547    733418.3779  -4555182.6783   1  20   0.0079   0.0043   0.0090  -0.0041  -0.0043   0.0067   1.00   50.9
2019/05/09 04:04:15.000  -4387873.7542    733418.3789  -4555182.6783   1  20   0.0082   0.0044   0.0094  -0.0043  -0.0044   0.0070   2.00   55.3
2019/05/09 04:04:16.000  -4387873.7528    733418.3786  -4555182.6777   1  20   0.0087   0.0047   0.0100  -0.0044  -0.0046   0.0074   3.00   41.4
2019/05/09 04:04:17.000  -4387873.7558    733418.3791  -4555182.6782   1  20   0.0094   0.0050   0.0108  -0.0047  -0.0048   0.0080   4.00   44.7
2019/05/09 04:04:18.000  -4387873.7567    733418.3789  -4555182.6781   1  20   0.0101   0.0053   0.0117  -0.0049  -0.0051   0.0086   5.00   32.3
2019/05/09 04:04:19.000  -4387873.7564    733418.3791  -4555182.6764   1  20   0.0109   0.0057   0.0127  -0.0052  -0.0055   0.0093   6.00   29.9
2019/05/09 04:04:20.000  -4387873.7566    733418.3786  -4555182.6767   1  20   0.0118   0.0061   0.0138  -0.0055  -0.0058   0.0101   7.00   21.1
2019/05/09 04:04:21.000  -4387873.7557    733418.3789  -4555182.6765   1  20   0.0127   0.0066   0.0149  -0.0058  -0.0062   0.0109   8.00   25.9
2019/05/09 04:04:22.000  -4387873.7574    733418.3796  -4555182.6792   1  20   0.0136   0.0070   0.0161  -0.0062  -0.0066   0.0118   9.00   18.7
